ID,DESC_CLASIFICACION,COD_BARRIO,BARRIO,COD_DISTRITO,DISTRITO,ESTADO,COORD_GIS_X,COORD_GIS_Y,SISTEMA_COORD,LATITUD,LONGITUD,TIPO_VIA,NOM_VIA,NUM_VIA,COD_POSTAL,DIRECCION_AUX,NDP,FECHA_INSTALACION,CODIGO_INTERNO,CONTRATO_COD,UBICACION,USO,MODELO
10030549,Fuentes de beber,181,CASCO HISTORICO DE VALLECAS,18,VILLA DE VALLECAS,OPERATIVO,447452.205,4469608.527,ETRS89,40.37540321,-3.61900539,CALLE,MUELA DE SAN JUAN,5,28031,zona estancial en plaza de milmarcos,20153262,2025-05-13 00:00:00.0,FUE_18_0089,FUE25,ZV,PERSONAS,FUENTE_ACCESIBLE
10040804,Fuentes de beber,166,VALDEFUENTES,16,HORTALEZA,OPERATIVO,447614.36,4481601.607,ETRS89,40.48345438,-3.61808367,Avenida,Avenida de las Fuerzas Armadas,11,28055,,,,,PV24,,,
10040805,Fuentes de beber,166,VALDEFUENTES,16,HORTALEZA,OPERATIVO,447609.434,4482556.756,ETRS89,40.49205854,-3.61822074,Avenida,Avenida de las Fuerzas Armadas,11,28055,,,,,PV24,,,
10040806,Fuentes de beber,166,VALDEFUENTES,16,HORTALEZA,OPERATIVO,447272.239,4482211.098,ETRS89,40.48892333,-3.62217073,Avenida,Avenida de las Fuerzas Armadas,11,28055,,,,,PV24,,,
10040807,Fuentes de beber,166,VALDEFUENTES,16,HORTALEZA,OPERATIVO,446917.24,4480303.739,ETRS89,40.47171823,-3.62619969,Calle,Calle Ariadna,2,28033,,,,,PV24,,,
10075664,Fuentes de beber,091,CASA DE CAMPO,09,MONCLOA-ARAVACA,OPERATIVO,438306.688,4475035.162,ETRS89,40.423662,-3.7272565,CALLE,SAN POL DE MAR,7,28008,junto a zona estancial,11051524,2025-07-14 00:00:00.0,FUE_09_0142,FUE25,ZV,PERSONAS,FUENTE_ACCESIBLE
10098794,Fuentes de beber,075,RIOS ROSAS,07,CHAMBERI,OPERATIVO,441338.743,4477445.701,ETRS89,40.44559656,-3.6917389,PASEO,CASTELLANA,65,28046,"nuevas ministerios, estación metro",11041676,2025-10-22 00:00:00.0,FUE_07_0048,FUE25,VP,PERSONAS,FUENTE_ACCESIBLE
10115756,Fuentes de beber,112,OPAÑEL,11,CARABANCHEL,OPERATIVO,438128.26,4470967.79,ETRS89,40.38700808,-3.72896429,AVENIDA,OPORTO,86,28019,frente a escaleras a pl. valle de oro,11070375,2025-10-21 00:00:00.0,FUE_11_0158,FUE25,ZV,PERSONAS,FUENTE_ACCESIBLE
10116446,Fuentes de beber,183,ENSANCHE DE VALLECAS,18,VILLA DE VALLECAS,OPERATIVO,449034.429,4468039.571,ETRS89,40.36136717,-3.6002426,CALLE,EMBALSE DE NAVACERRADA,27,28051,próximo a área infantil 'embalse de manzanares',31018980,2025-10-23 00:00:00.0,FUE_18_0090,FUE25,ZV,PERSONAS,MU-37AA
10116451,Fuentes de beber,183,ENSANCHE DE VALLECAS,18,VILLA DE VALLECAS,OPERATIVO,448972.692,4467951.001,ETRS89,40.36056549,-3.60096258,AVENIDA,SALMEDINA,61,28051,en área canina,31074242,2025-10-23 00:00:00.0,FUE_18_0091,FUE25,ZV,PERSONAS_Y_MASCOTAS,MIXTA TERRIER
1118924,Fuentes de beber,091,CASA DE CAMPO,09,MONCLOA-ARAVACA,OPERATIVO,437855.772,4475632.61,ETRS89,40.4290105,-3.73263,CALLE,RIBERA DEL MANZANARES,123,28008,fuente de la colonia manzanares  (fuente de la teja y el sopapo),11051714,2017-04-27 00:00:00.0,FUE_09_0119,FUE25,VP,PERSONAS,PATRIMONIO_HISTORICO
3530207,Fuentes de beber,166,VALDEFUENTES,16,HORTALEZA,OPERATIVO,448695.16,4482723.21,ETRS89,40.49362587,-3.60542308,CALLE,JULIO CANO LASSO,47,28055,conector jordi sole tura,31040778,2017-05-16 00:00:00.0,FUE_16_0152,FUE25,ZV,PERSONAS,MU-37A
3531365,Fuentes de beber,087,MIRASIERRA,08,FUENCARRAL-EL PARDO,OPERATIVO,438842.224,4483134.84,ETRS89,40.49666643,-3.7217244,CALLE,MARIA DE MAEZTU,148,28049,,31049966,,FUE_08_0147,FUE25,ZV,PERSONAS,EGEA
3531367,Fuentes de beber,087,MIRASIERRA,08,FUENCARRAL-EL PARDO,OPERATIVO,438722.367,4482907.29,ETRS89,40.49460774,-3.72311672,CALLE,MARIA DE MAEZTU,120,28049,junto a juegos mayores,31050035,,FUE_08_0148,FUE25,ZV,PERSONAS,EGEA
3531372,Fuentes de beber,087,MIRASIERRA,08,FUENCARRAL-EL PARDO,OPERATIVO,438584.784,4482766.8,ETRS89,40.493332,-3.72472655,CALLE,SENDA DEL INFANTE,54,28049,c/v calle senda del infante,31037710,,FUE_08_0149,FUE25,ZV,PERSONAS,EGEA
3531377,Fuentes de beber,084,PILAR,08,FUENCARRAL-EL PARDO,OPERATIVO,440043.598,4480524.8,ETRS89,40.47324192,-3.70730113,AVENIDA,EL FERROL,35,28029,calle ribadavia 45,11046306,,FUE_08_0152,FUE25,ZV,PERSONAS,MU-37A
3531398,Fuentes de beber,093,CIUDAD UNIVERSITARIA,09,MONCLOA-ARAVACA,OPERATIVO,439459.51,4478045.57,ETRS89,40.4508657,-3.71395457,PASEO,JUAN XXIII,21,28040,,31014661,2018-03-07 00:00:00.0,FUE_09_0120,FUE25,ZV,PERSONAS,MU-37A
3558557,Fuentes de beber,166,VALDEFUENTES,16,HORTALEZA,OPERATIVO,448618.646,4482199.06,ETRS89,40.48889931,-3.60628344,CALLE,ESTANISLAO PEREZ PITA,70,28055,c/v c/ gustavo pérez puig,31063044,,FUE_16_0173,FUE25,ZV,PERSONAS,MU-37A
3568640,Fuentes de beber,102,PUERTA DEL ANGEL,10,LATINA,OPERATIVO,438559.778,4473705.915,ETRS89,40.4117063,-3.72414484,CALLE,PABLO CASALS,2,28011,"entre farolas 2 y 3, proximo a pista de futbol",11060052,2017-10-16 00:00:00.0,FUE_10_0110,FUE25,VP,PERSONAS,MU-37B
3568799,Fuentes de beber,152,PUEBLO NUEVO,15,CIUDAD LINEAL,OPERATIVO,445907.19,4475578.89,ETRS89,40.42908908,-3.63771174,CALLE,LUIS RUIZ,48,28017,en tramo peatonal gregorio donas,31030631,2017-09-18 00:00:00.0,FUE_15_0121,FUE25,VP,PERSONAS,MU-S37A
3568802,Fuentes de beber,153,QUINTANA,15,CIUDAD LINEAL,OPERATIVO,444726.653,4476271.888,ETRS89,40.43525438,-3.65168876,CALLE,VIRGEN DE LLUC,42,28027,"parque calero, junto área canina",11109420,2017-10-13 00:00:00.0,FUE_15_0123,FUE25,ZV,PERSONAS_Y_MASCOTAS,MIXTA NEPTUNO
3569053,Fuentes de beber,043,FUENTE DEL BERRO,04,SALAMANCA,OPERATIVO,443585.18,4475363.43,ETRS89,40.42699387,-3.66506558,CALLE,RUFINO BLANCO,27,28028,en glorieta central de jardines de las mujeres de ventas,31034502,2017-10-26 00:00:00.0,FUE_04_0040,FUE25,ZV,PERSONAS,MU-37A
10040803,Fuentes de beber,166,VALDEFUENTES,16,HORTALEZA,OPERATIVO,447330.063,4481612.22,ETRS89,40.483532,-3.62143871,Avenida,Avenida de las Fuerzas Armadas,11,28055,,,,,PV24,,,
10040808,Fuentes de beber,166,VALDEFUENTES,16,HORTALEZA,OPERATIVO,446829.141,4480378.512,ETRS89,40.47238619,-3.62724517,Calle,Calle Ariadna,2,28033,,,,,PV24,,,
10040811,Fuentes de beber,131,ENTREVIAS,13,PUENTE DE VALLECAS,OPERATIVO,443190.725,4468707.601,ETRS89,40.36700754,-3.6691216,Avenida,Avenida del Conocimiento,,28053,,,,,PV24,,,
10040812,Fuentes de beber,131,ENTREVIAS,13,PUENTE DE VALLECAS,OPERATIVO,442914.01,4468479.016,ETRS89,40.36492941,-3.67236018,Avenida,Avenida del Conocimiento,,28053,,,,,PV24,,,
10046448,Fuentes de beber,011,PALACIO,01,CENTRO,OPERATIVO,439286.799,4473557.836,ETRS89,40.41042569,-3.71556256,CALLE,JERTE,3,28005,parque de la cornisa,20000014,2025-06-05 00:00:00.0,FUE_01_0122,FUE25,ZV,PERSONAS,MU-37AA
10052854,Fuentes de beber,123,SAN FERMIN,12,USERA,OPERATIVO,441209.539,4469129.689,ETRS89,40.37067259,-3.69249411,CALLE,POPULAR MADRILEÑA,11,28041,cerca área de calistenia,20142337,2025-06-18 00:00:00.0,FUE_12_0092,FUE25,ZV,PERSONAS,MU-37AA
10081659,Fuentes de beber,151,VENTAS,15,CIUDAD LINEAL,OPERATIVO,444436.269,4474446.136,ETRS89,40.41878765,-3.6549527,CALLE,FELIX RODRIGUEZ DE LA FUENTE,26,28017,"pinar de la elipa, junto a zona canina",20093274,2025-07-28 00:00:00.0,FUE_15_0143,FUE25,ZV,PERSONAS_Y_MASCOTAS,MIXTA ESTELA
10083506,Fuentes de beber,131,ENTREVIAS,13,PUENTE DE VALLECAS,OPERATIVO,442720.935,4470632.408,ETRS89,40.3843152,-3.67482758,CALLE,CONCEJO DE TEVERGA,22,28053,cerca área infantil,20063169,2025-08-05 00:00:00.0,FUE_13_0191,FUE25,ZV,PERSONAS,MU-37A
10083544,Fuentes de beber,125,MOSCARDO,12,USERA,OPERATIVO,439484.88,4470860.027,ETRS89,40.38613695,-3.71297173,CALLE,MARQUESA DE SILVELA,15,28026,cerca zona de petanca,11085109,2025-08-05 00:00:00.0,FUE_12_0093,FUE25,ZV,PERSONAS,FUENTE_ACCESIBLE
10087194,Fuentes de beber,065,VALDEACEDERAS,06,TETUAN,OPERATIVO,440230.888,4479991.887,ETRS89,40.46845473,-3.70504163,CALLE,PANDO,2,28029,junto a zona infantil,11034794,2025-08-26 00:00:00.0,FUE_06_0109,FUE25,ZV,PERSONAS,FUENTE_ACCESIBLE
10087195,Fuentes de beber,065,VALDEACEDERAS,06,TETUAN,OPERATIVO,440194.905,4479998.502,ETRS89,40.46851173,-3.70546669,CALLE,PANDO,6,28029,cerca zona infantil,11034796,2025-08-26 00:00:00.0,FUE_06_0110,FUE25,ZV,PERSONAS,FUENTE_ACCESIBLE
1118899,Fuentes de beber,191,CASCO HISTORICO DE VICALVARO,19,VICALVARO,FUERA_DE_SERVICIO,448223.6,4473350.68,ETRS89,40.40916335,-3.61022319,CALLE,CALAHORRA,22 B,28032,"entre farolas 7 y 8 de plaza vicalvarada, en centro zona estancial",31053577,,FUE_19_0140,FUE25,ZV,PERSONAS,MU-37E
1118921,Fuentes de beber,043,FUENTE DEL BERRO,04,SALAMANCA,OPERATIVO,443881.34,4475590.91,ETRS89,40.42906316,-3.6615945,PLAZA,AMERICA ESPAÑOLA,1,28028,"acceso final parque fuente del berro, proximo a area canina",31070561,2017-04-27 00:00:00.0,FUE_04_0039,FUE25,ZV,MASCOTAS,BEBEDERO TERRIER
3530213,Fuentes de beber,166,VALDEFUENTES,16,HORTALEZA,OPERATIVO,448696.169,4481911.509,ETRS89,40.48631369,-3.60534547,CALLE,FERNANDO HIGUERAS,55,28055,c/v c/ julio cano lasso,31039443,2017-05-16 00:00:00.0,FUE_16_0172,FUE25,ZV,PERSONAS,MU-37A
3530535,Fuentes de beber,159,COSTILLARES,15,CIUDAD LINEAL,OPERATIVO,443892.05,4481542.01,ETRS89,40.4826743,-3.66199421,CALLE,JAZMIN,49,28033,junto área infantil,20184185,2017-06-13 00:00:00.0,FUE_15_0120,FUE25,ZV,PERSONAS,MU-37B
3530545,Fuentes de beber,202,HELLIN,20,SAN BLAS-CANILLEJAS,OPERATIVO,447230.89,4475713.172,ETRS89,40.43038379,-3.62211839,AVENIDA,ARCENTALES,4,28037,"junto auditorio y carril bici, en parque el paraiso",31041888,2017-05-31 00:00:00.0,FUE_20_0110,FUE25,ZV,PERSONAS,MU-37AA
3530650,Fuentes de beber,083,PEÑAGRANDE,08,FUENCARRAL-EL PARDO,OPERATIVO,438406.713,4480606.82,ETRS89,40.47386101,-3.72661785,CALLE,JOAQUIN LORENZO,36,28035,en el parque de enfrente,11044479,,FUE_08_0150,FUE25,ZV,PERSONAS,MU-37A
3530868,Fuentes de beber,016,SOL,01,CENTRO,OPERATIVO,439879.02,4474144.04,ETRS89,40.41574947,-3.70863858,CALLE,CIUDAD RODRIGO,6,28012,cv travesía de bringas,11007722,2017-06-22 00:00:00.0,FUE_01_0044,FUE25,VP,PERSONAS,MU-37E
3531364,Fuentes de beber,084,PILAR,08,FUENCARRAL-EL PARDO,OPERATIVO,440030.6,4480481.6,ETRS89,40.47285182,-3.70745037,CALLE,RIBADAVIA,45,28029,calle ribadavia 27,31041111,2017-07-21 00:00:00.0,FUE_08_0062,FUE25,ZV,PERSONAS,MU-37A
3531374,Fuentes de beber,086,VALVERDE,08,FUENCARRAL-EL PARDO,OPERATIVO,442339.163,4484287.762,ETRS89,40.50730272,-3.68056474,CARRETERA,FUENCARRAL A HORTALEZA,7,28050,c/v calle del castillo de candanchú,31070899,,FUE_08_0151,FUE25,ZV,PERSONAS,EGEA
3565789,Fuentes de beber,032,ADELFAS,03,RETIRO,OPERATIVO,442951.19,4471915.44,ETRS89,40.39588928,-3.67222995,CALLE,CERRO NEGRO,12 C,28007,,31041013,,FUE_03_0046,FUE25,ZV,PERSONAS,MU-37A
3565880,Fuentes de beber,092,ARGÜELLES,09,MONCLOA-ARAVACA,OPERATIVO,439045.75,4475290.37,ETRS89,40.4260155,-3.71856937,PASEO,PINTOR ROSALES,16,28008,cv calle rey francisco,11052506,2017-08-11 00:00:00.0,FUE_09_0056,FUE25,VP,PERSONAS,MU-37A
3567461,Fuentes de beber,014,JUSTICIA,01,CENTRO,OPERATIVO,440629.77,4475283.34,ETRS89,40.42606672,-3.69989657,CALLE,BENEFICENCIA,8,28004,jardines del arquitecto ribera junto a parque infantil,11005217,2017-10-09 00:00:00.0,FUE_01_0045,FUE25,ZV,PERSONAS,FUENTE_ACCESIBLE
3568639,Fuentes de beber,025,DELICIAS,02,ARGANZUELA,OPERATIVO,441238.390,4471659.400,ETRS89,40.39346365,-3.69238758,CALLE,HIERRO,2,28045,"junto farola 2, en parque del granito",31064800,2017-10-05 00:00:00.0,FUE_02_0053,FUE25,VP,PERSONAS,MU-37A
3568641,Fuentes de beber,083,PEÑAGRANDE,08,FUENCARRAL-EL PARDO,OPERATIVO,439182.94,4481256.07,ETRS89,40.47976688,-3.71752362,CALLE,FERMIN CABALLERO,84,28035,con vuelta calle santiago de compostela,31010701,2017-10-02 00:00:00.0,FUE_08_0153,FUE25,ZV,PERSONAS,MU-37A
3568801,Fuentes de beber,156,SAN JUAN BAUTISTA,15,CIUDAD LINEAL,OPERATIVO,444277.24,4477934.22,ETRS89,40.45019953,-3.65713296,PLAZA,VALVANERA,5,28043,junto acera c/ albelda,31015964,2021-03-12 00:00:00.0,FUE_15_0122,FUE25,ZV,PERSONAS,PIEDRA VP
3569158,Fuentes de beber,065,VALDEACEDERAS,06,TETUAN,OPERATIVO,440375.5,4479413.31,ETRS89,40.46325307,-3.70328153,CALLE,MARQUES DE VIANA,58,28039,frente al colegio,11035958,2017-10-24 00:00:00.0,FUE_06_0082,FUE25,VP,PERSONAS,MU-37A
3569414,Fuentes de beber,031,PACIFICO,03,RETIRO,OPERATIVO,443082.6,4473087.48,ETRS89,40.40645666,-3.67078638,PLAZA,CONDE DE CASAL,10,28007,junto farola 4 y carril bici,31047387,2025-01-27 00:00:00.0,FUE_03_0052,FUE25,VP,PERSONAS,MU-37AA
3569415,Fuentes de beber,084,PILAR,08,FUENCARRAL-EL PARDO,OPERATIVO,439950.08,4481131.74,ETRS89,40.4787027,-3.70846174,AVENIDA,MONFORTE DE LEMOS,36,28029,,31049013,2017-10-31 00:00:00.0,FUE_08_0154,FUE25,VP,PERSONAS,MU-37B
3576061,Fuentes de beber,205,ROSAS,20,SAN BLAS-CANILLEJAS,OPERATIVO,448497.27,4475361.42,ETRS89,40.42729436,-3.60716078,CALLE,CARLOS II,2,28022,junto farola 1048 y area infantil,20084930,2017-11-08 00:00:00.0,FUE_20_0112,FUE25,VP,PERSONAS,MU-37A
3576073,Fuentes de beber,183,ENSANCHE DE VALLECAS,18,VILLA DE VALLECAS,OPERATIVO,449778.42,4468821.52,ETRS89,40.36845669,-3.59154233,CALLE,ALTO DEL RETIRO,13,28051,"entre farolas 28 y 30, proximo a gta. c/ antonio gades",31045486,2017-10-17 00:00:00.0,FUE_18_0053,FUE25,VP,PERSONAS,MU-S37A
3576085,Fuentes de beber,183,ENSANCHE DE VALLECAS,18,VILLA DE VALLECAS,OPERATIVO,449610.6,4468080.21,ETRS89,40.36176829,-3.59346035,CALLE,FERNANDO CHUECA GOITIA,31,28051,"frente c/ mª teresa leon,  junto farola 20",31056617,2017-11-16 00:00:00.0,FUE_18_0054,FUE25,VP,PERSONAS,MU-S37A
3576087,Fuentes de beber,134,PALOMERAS SURESTE,13,PUENTE DE VALLECAS,FUERA_DE_SERVICIO,445346.51,4470606.54,ETRS89,40.38425853,-3.64389431,CALLE,EXTREMEÑOS,5,28018,"entre farolas 10 y 12, junto area infantil parque de la paloma",20139499,,FUE_13_0155,FUE25,ZV,PERSONAS,MU-37A
3581346,Fuentes de beber,174,LOS ROSALES,17,VILLAVERDE,OPERATIVO,441207.173,4466924.162,ETRS89,40.35080376,-3.69231869,CALLE,SANTA PETRONILA,16,28021,"frente c/ jose del pino, junto farola 4 en bulevar",11128079,2017-11-21 00:00:00.0,FUE_17_0121,FUE25,ZV,PERSONAS,MU-S37A
3655196,Fuentes de beber,086,VALVERDE,08,FUENCARRAL-EL PARDO,OPERATIVO,441167.05,4482813.08,ETRS89,40.49393596,-3.69426114,CALLE,MATARO,2,28034,,11048281,2017-12-01 00:00:00.0,FUE_08_0113,FUE25,ZV,PERSONAS,MU-37A
4738570,Fuentes de beber,116,BUENAVISTA,11,CARABANCHEL,OPERATIVO,435049.06,4468488.26,ETRS89,40.36443708,-3.76498734,CALLE,TORTA,3,28054,"frente c/ /patrimonio de la humanidad, junto farola 37",31006215,2017-09-15 00:00:00.0,FUE_11_0129,FUE25,VP,PERSONAS,MU-37A
4784163,Fuentes de beber,192,VALDEBERNARDO,19,VICALVARO,OPERATIVO,447553.3,4472469.97,ETRS89,40.40118738,-3.61805017,CALLE,CORDEL DE PAVONES,14 A,28032,"frente nº 14, junto farola 17 y area infantil",20124179,2018-04-02 00:00:00.0,FUE_19_0115,FUE25,ZV,PERSONAS,MU-37A
4784586,Fuentes de beber,087,MIRASIERRA,08,FUENCARRAL-EL PARDO,OPERATIVO,438429.37,4482666.43,ETRS89,40.49241632,-3.72655061,CALLE,MENCHU AJAMIL,2,28049,cv calle maria teresa de calcuta,31049743,,FUE_08_0155,FUE25,ZV,PERSONAS,EGEA
4795658,Fuentes de beber,016,SOL,01,CENTRO,OPERATIVO,440031.29,4474322.66,ETRS89,40.41736955,-3.70686076,CALLE,ARENAL,18,28013,,11007831,2018-06-29 00:00:00.0,FUE_01_0046,FUE25,VP,PERSONAS,FUENTE_ACCESIBLE
4795801,Fuentes de beber,121,ORCASITAS,12,USERA,OPERATIVO,439808.91,4469323.11,ETRS89,40.37231507,-3.70900922,AVENIDA,POBLADOS,144,28041,junto acceso escuela infantil pradolongo y carril bici,31009783,2018-06-04 00:00:00.0,FUE_12_0069,FUE25,VP,PERSONAS,FUENTE_ACCESIBLE
4796090,Fuentes de beber,117,ABRANTES,11,CARABANCHEL,OPERATIVO,438908.310,4470722.410,ETRS89,40.38485514,-3.71975101,CALLE,VIANA,1,28025,"c/v c/ via lusitana, en parque junto area infantil",11079428,2018-07-13 00:00:00.0,FUE_11_0130,FUE25,ZV,PERSONAS,FUENTE_ACCESIBLE
4796261,Fuentes de beber,086,VALVERDE,08,FUENCARRAL-EL PARDO,OPERATIVO,442762.33,4484338.64,ETRS89,40.50779036,-3.67557508,CALLE,SAN JUAN DE ORTEGA,90,28050,junto a una zona verde y una zona infantil,31023640,2018-07-23 00:00:00.0,FUE_08_0158,FUE25,VP,PERSONAS,MU-37A
4798069,Fuentes de beber,164,PINAR DEL REY,16,HORTALEZA,OPERATIVO,445032.33,4479915.9,ETRS89,40.46810179,-3.64840042,GLORIETA,FRANCISCO FERNANDEZ ORDOÑEZ,4,28043,junto nº 47 avda. gran vía de hortaleza,20123605,2018-08-21 00:00:00.0,FUE_16_0154,FUE25,VP,PERSONAS,FUENTE_ACCESIBLE
4813533,Fuentes de beber,163,CANILLAS,16,HORTALEZA,OPERATIVO,446725.49,4479468.28,ETRS89,40.4641797,-3.62839142,CALLE,EL PROVENCIO,16,28043,junto área infantil,20063258,,FUE_16_0168,FUE25,ZV,PERSONAS,MU-37A
4813550,Fuentes de beber,035,LOS JERONIMOS,03,RETIRO,OPERATIVO,442085.58,4473289.53,ETRS89,40.40820807,-3.68255413,CALLE,JUAN VALERA,26,28014,"entre farolas 14 y 15, junto area infantil",11013002,2020-07-15 00:00:00.0,FUE_03_0057,FUE25,VP,PERSONAS,MU-37A
4813553,Fuentes de beber,033,ESTRELLA,03,RETIRO,OPERATIVO,443512.78,4473613.83,ETRS89,40.41122761,-3.66576365,CALLE,ESTRELLA POLAR,13,28007,c/v c/ pez austral,11011956,2020-07-14 00:00:00.0,FUE_03_0054,FUE25,VP,PERSONAS,MU-37A
4940126,Fuentes de beber,165,APOSTOL SANTIAGO,16,HORTALEZA,OPERATIVO,443791.53,4480397.91,ETRS89,40.47236093,-3.66307872,CALLE,JULIO DANVILA,28,28033,zona infantil,11121437,2018-10-09 00:00:00.0,FUE_16_0155,FUE25,VP,PERSONAS,MU-S37A
4961115,Fuentes de beber,075,RIOS ROSAS,07,CHAMBERI,OPERATIVO,440756.59,4477524.93,ETRS89,40.44626901,-3.69861061,CALLE,PONZANO,100,28003,cv raimundo fdez villaverde,31006753,2018-10-15 00:00:00.0,FUE_07_0021,FUE25,VP,PERSONAS,FUENTE_ACCESIBLE
4963663,Fuentes de beber,146,VINATEROS,14,MORATALAZ,OPERATIVO,444799.98,4472954.92,ETRS89,40.40537813,-3.65053637,CALLE,HACIENDA DE PAVONES,1,28030,"junto farola 1 y quiosco, en plaza del encuentro",31043377,2018-10-23 00:00:00.0,FUE_14_0100,FUE25,VP,PERSONAS,FUENTE_ACCESIBLE
4988124,Fuentes de beber,083,PEÑAGRANDE,08,FUENCARRAL-EL PARDO,OPERATIVO,439366.88,4481654.65,ETRS89,40.48337088,-3.71539177,AVENIDA,VENTISQUERO DE LA CONDESA,2,28035,,20079569,,FUE_08_0160,FUE25,ZV,PERSONAS,MU-37B
4989817,Fuentes de beber,092,ARGÜELLES,09,MONCLOA-ARAVACA,OPERATIVO,439374.18,4475539.53,ETRS89,40.42828404,-3.71472167,CALLE,PRINCESA,33,28008,cv calle rey francisco,11052549,2018-12-28 00:00:00.0,FUE_09_0062,FUE25,VP,PERSONAS,MU-37A
4991388,Fuentes de beber,073,TRAFALGAR,07,CHAMBERI,OPERATIVO,440472.47,4475637.17,ETRS89,40.42924294,-3.70178393,GLORIETA,BILBAO,5,28004,cv calle luchana,11039861,2019-01-17 00:00:00.0,FUE_07_0022,FUE25,VP,PERSONAS,MU-37B
4995656,Fuentes de beber,062,CUATRO CAMINOS,06,TETUAN,OPERATIVO,441188.87,4477844.94,ETRS89,40.44918249,-3.69354307,PLAZA,PABLO RUÍZ PICASSO,6,28020,junto a pistas deportivas,31065188,,FUE_06_0083,FUE25,ZV,PERSONAS,CARMEL
4996359,Fuentes de beber,094,VALDEZARZA,09,MONCLOA-ARAVACA,OPERATIVO,438993.81,4480057.37,ETRS89,40.4689547,-3.71963953,CALLE,VALDERRODRIGO,46,28035,,11054493,,FUE_09_0123,FUE25,ZV,PERSONAS,MU-37A
4998043,Fuentes de beber,166,VALDEFUENTES,16,HORTALEZA,OPERATIVO,448312.929,4482851.297,ETRS89,40.49475603,-3.60994381,AVENIDA,SECUNDINO ZUAZO,134,28055,,31039692,,FUE_16_0157,FUE25,ZV,PERSONAS,MU-37A
4998045,Fuentes de beber,166,VALDEFUENTES,16,HORTALEZA,OPERATIVO,448562.686,4483546.406,ETRS89,40.50103344,-3.6070531,AVENIDA,FRANCISCO JAVIER SAENZ DE OIZA,15,28055,calle de antonio florez,31035676,,FUE_16_0159,FUE25,ZV,PERSONAS,MU-37A
5007925,Fuentes de beber,086,VALVERDE,08,FUENCARRAL-EL PARDO,OPERATIVO,442612.023,4483782.25,ETRS89,40.5027678,-3.67729861,AVENIDA,PUENTE LA REINA,48,28050,pza. int. castillo de jaca junto a la zona infantil,31010570,2019-02-28 00:00:00.0,FUE_08_0161,FUE25,ZV,PERSONAS,CASTIZA
5034853,Fuentes de beber,013,CORTES,01,CENTRO,OPERATIVO,440345.47,4474000.18,ETRS89,40.41448707,-3.70312749,PLAZA,JACINTO BENAVENTE,2,28012,c/v plaza del ángel,11003682,2019-03-14 00:00:00.0,FUE_01_0050,FUE25,ZV,PERSONAS,MU-37AA
5034922,Fuentes de beber,083,PEÑAGRANDE,08,FUENCARRAL-EL PARDO,OPERATIVO,438945.762,4481447.771,ETRS89,40.48147638,-3.72034012,AVENIDA,CARDENAL HERRERA ORIA,246  B,28035,junto a zona infantil,31045115,2025-03-25 00:00:00.0,FUE_08_0216,FUE25,ZV,PERSONAS,METROPOLIS
5069011,Fuentes de beber,027,ATOCHA,02,ARGANZUELA,OPERATIVO,442359.460,4472086.990,ETRS89,40.39739395,-3.67921762,CALLE,ALMEZ,2,28045,"junto farola 6 c/ jacaranda, entre areas infantiles",20139361,2019-04-04 00:00:00.0,FUE_02_0057,FUE25,ZV,PERSONAS,MU-37A
5069025,Fuentes de beber,021,IMPERIAL,02,ARGANZUELA,OPERATIVO,439380.75,4472628.01,ETRS89,40.40205623,-3.71436677,CALLE,TOLEDO,178,28005,"junto area infantil, en parque ambulatoria pinares",20084999,2019-04-05 00:00:00.0,FUE_02_0059,FUE25,ZV,PERSONAS,MU-37A
5069030,Fuentes de beber,022,ACACIAS,02,ARGANZUELA,OPERATIVO,440602.840,4472491.950,ETRS89,40.4009186,-3.6999534,PASEO,JUAN ANTONIO VALLEJO-NAJERA BOTAS,2,28005,"c/v glorieta santa maria de la cabeza, junto wc publico",20118567,2019-04-04 00:00:00.0,FUE_02_0060,FUE25,ZV,PERSONAS,MU-37A
5074610,Fuentes de beber,052,PROSPERIDAD,05,CHAMARTIN,OPERATIVO,443342.73,4477507,ETRS89,40.44628776,-3.66811472,CALLE,CLARA DEL REY,61,28002,c/v c/ramos carrion,20009496,2019-04-15 00:00:00.0,FUE_05_0080,FUE25,VP,PERSONAS,MU-37A
5074625,Fuentes de beber,127,PRADOLONGO,12,USERA,OPERATIVO,440211.82,4469319.32,ETRS89,40.37230993,-3.70426321,CALLE,DOCTOR TOLOSA LATOUR,15,28041,"entre plaza de rosales y area de calistenia, en parque de pradolongo",31011677,2019-04-26 00:00:00.0,FUE_12_0070,FUE25,ZV,PERSONAS,CASTIZA
5074629,Fuentes de beber,123,SAN FERMIN,12,USERA,OPERATIVO,441502.39,4468578.04,ETRS89,40.36572363,-3.68899423,CALLE,SILVINA,35,28041,"frente farola 22, junto area infantil",20141724,2019-04-23 00:00:00.0,FUE_12_0071,FUE25,ZV,PERSONAS,CASTIZA
5074661,Fuentes de beber,122,ORCASUR,12,USERA,OPERATIVO,440450.47,4468610.37,ETRS89,40.3659404,-3.70138606,AVENIDA,ORCASUR,53,28041,"frente farola 2038, zona norte de  pistas deportivas",20142301,2019-04-12 00:00:00.0,FUE_12_0072,FUE25,VP,PERSONAS,CASTIZA
5104802,Fuentes de beber,122,ORCASUR,12,USERA,OPERATIVO,440902.67,4468658.29,ETRS89,40.36640427,-3.69606478,CALLE,TUYA,3,28041,"entre farolas 2 y 3, junto area infantil",20046644,2019-04-15 00:00:00.0,FUE_12_0073,FUE25,ZV,PERSONAS,CASTIZA
5106389,Fuentes de beber,103,LUCERO,10,LATINA,OPERATIVO,436374.35,4473303.5,ETRS89,40.40791701,-3.74986037,CALLE,VILLAMANIN,18,28011,entre farola 11 y area infantil,11064021,2019-04-30 00:00:00.0,FUE_10_0115,FUE25,ZV,PERSONAS,CASTIZA
5106392,Fuentes de beber,107,AGUILAS,10,LATINA,OPERATIVO,434735.95,4470474.98,ETRS89,40.38230981,-3.76887822,CALLE,ANSELMO LORENZO,17,28044,"parque de los tres mosqueteros, proximo a instalacion deportiva",11068697,2019-05-10 00:00:00.0,FUE_10_0113,FUE25,ZV,PERSONAS,CASTIZA
5106551,Fuentes de beber,107,AGUILAS,10,LATINA,OPERATIVO,433838.76,4470389.9,ETRS89,40.38147262,-3.77943829,AVENIDA,LAS AGUILAS,72,28044,"parque clara campoamor, junto areas infantiles",11067494,2019-05-14 00:00:00.0,FUE_10_0114,FUE25,ZV,PERSONAS,CASTIZA
5106805,Fuentes de beber,215,CORRALEJOS,21,BARAJAS,OPERATIVO,449704.7,4479807.43,ETRS89,40.46742065,-3.59327932,CALLE,BAHIA DE SANTA POLA,68,28042,frente nº 68,20143672,2019-05-22 00:00:00.0,FUE_21_0060,FUE25,ZV,PERSONAS,CASTIZA
5106820,Fuentes de beber,214,TIMON,21,BARAJAS,OPERATIVO,449810.14,4480009.97,ETRS89,40.46925163,-3.59205165,CALLE,MISTRAL,111,28042,"farola 41, junto a senda verde",31061077,2019-05-23 00:00:00.0,FUE_21_0058,FUE25,VP,PERSONAS,CASTIZA
5107502,Fuentes de beber,011,PALACIO,01,CENTRO,OPERATIVO,439737.76,4474945.45,ETRS89,40.42295872,-3.7103794,CALLE,GRAN VIA,69,28013,,11000110,2019-04-30 00:00:00.0,FUE_01_0054,FUE25,VP,PERSONAS,FUENTE_ACCESIBLE
5107503,Fuentes de beber,013,CORTES,01,CENTRO,FUERA_DE_SERVICIO,440824.97,4474488.94,ETRS89,40.41892429,-3.69752166,CALLE,CABALLERO DE GRACIA,40,28013,c/v gran vía 1,31008869,2019-04-30 00:00:00.0,FUE_01_0055,FUE22,VP,PERSONAS,FUENTE_ACCESIBLE
5108205,Fuentes de beber,145,FONTARRON,14,MORATALAZ,OPERATIVO,444373.33,4473031.85,ETRS89,40.40604276,-3.65557089,AVENIDA,MORATALAZ,54,28030,"entre farolas 30 y 32, junto area infantil en parque darwin",20152921,2019-05-13 00:00:00.0,FUE_14_0104,FUE25,ZV,PERSONAS,MU-37A
5110229,Fuentes de beber,013,CORTES,01,CENTRO,OPERATIVO,441001.17,4473841.53,ETRS89,40.41310462,-3.69538481,CALLE,HUERTAS,71,28014,c/v calle jesús,11003476,2019-06-06 00:00:00.0,FUE_01_0061,FUE25,ZV,PERSONAS,MU-37A
5124693,Fuentes de beber,086,VALVERDE,08,FUENCARRAL-EL PARDO,OPERATIVO,441518.69,4483623.18,ETRS89,40.5012585,-3.69018667,PLAZA,TRES OLIVOS,26,28034,frente nº26,20150231,2019-06-05 00:00:00.0,FUE_08_0162,FUE25,ZV,PERSONAS,CASTIZA
5125347,Fuentes de beber,086,VALVERDE,08,FUENCARRAL-EL PARDO,OPERATIVO,441696.33,4483690.86,ETRS89,40.50188068,-3.68809656,CALLE,ALONSO QUIJANO,45,28034,zv c/v ronda caballero de la mancha,20051689,2019-06-07 00:00:00.0,FUE_08_0164,FUE25,ZV,PERSONAS,CASTIZA
5125348,Fuentes de beber,086,VALVERDE,08,FUENCARRAL-EL PARDO,OPERATIVO,442463.65,4484273.04,ETRS89,40.50717875,-3.6790942,CALLE,BERDUN,2 D,28050,c/v c/castillo de candanchú,31029490,2019-06-13 00:00:00.0,FUE_08_0165,FUE25,ZV,PERSONAS,CASTIZA
5125474,Fuentes de beber,013,CORTES,01,CENTRO,OPERATIVO,441129.77,4473799.75,ETRS89,40.41273735,-3.69386532,PLAZA,PLATERIA DE MARTINEZ,3,28014,,20005060,2019-06-14 00:00:00.0,FUE_01_0059,FUE25,VP,PERSONAS,MU-37A
5125475,Fuentes de beber,012,EMBAJADORES,01,CENTRO,OPERATIVO,439964.21,4473787.04,ETRS89,40.4125396,-3.70760083,CALLE,TOLEDO,40,28005,frente nº 40,11000753,2019-06-04 00:00:00.0,FUE_01_0058,FUE25,VP,PERSONAS,MU-37A
5154605,Fuentes de beber,086,VALVERDE,08,FUENCARRAL-EL PARDO,OPERATIVO,441047.33,4483292.06,ETRS89,40.49824229,-3.69571837,PASEO,ALAMEDILLAS,6,28034,"en camino, frente centro deportivo municipal santa ana",20046526,2019-06-24 00:00:00.0,FUE_08_0167,FUE25,ZV,PERSONAS,CASTIZA
5154615,Fuentes de beber,086,VALVERDE,08,FUENCARRAL-EL PARDO,OPERATIVO,442696.2,4483556.74,ETRS89,40.50074213,-3.67628481,CALLE,VILLAVA,15,28050,c/v c/puente la reina,31023549,2019-06-25 00:00:00.0,FUE_08_0168,FUE25,ZV,PERSONAS,CASTIZA
5154625,Fuentes de beber,083,PEÑAGRANDE,08,FUENCARRAL-EL PARDO,OPERATIVO,438845.032,4480387.121,ETRS89,40.47191427,-3.7214262,CALLE,JOAQUIN LORENZO,5 B,28035,parque entre c/valle de mena y joaquín lorenzo,31009888,2019-06-26 00:00:00.0,FUE_08_0169,FUE25,ZV,PERSONAS_Y_MASCOTAS,MIXTA TERRIER
5176278,Fuentes de beber,112,OPAÑEL,11,CARABANCHEL,FUERA_DE_SERVICIO,437975.27,4471116.15,ETRS89,40.3883332,-3.73078111,GLORIETA,VALLE DE ORO,4,28019,junto quiosco de flores,11070433,2019-07-17 00:00:00.0,FUE_11_0131,FUE25,VP,PERSONAS,FUENTE_ACCESIBLE
5176422,Fuentes de beber,016,SOL,01,CENTRO,OPERATIVO,439948.63,4474192.11,ETRS89,40.41618753,-3.70782269,CALLE,MAYOR,32,28013,c/v bordadores,11007815,2019-07-19 00:00:00.0,FUE_01_0083,FUE25,VP,PERSONAS,MU-37A
5176430,Fuentes de beber,013,CORTES,01,CENTRO,OPERATIVO,441045.86,4473662.57,ETRS89,40.41149562,-3.69484153,CALLE,SAN PEDRO,20,28014,c/v gobernador,11003384,2019-06-28 00:00:00.0,FUE_01_0068,FUE25,VP,PERSONAS,MU-37A
5176479,Fuentes de beber,183,ENSANCHE DE VALLECAS,18,VILLA DE VALLECAS,OPERATIVO,448518.76,4468287.54,ETRS89,40.36356937,-3.60633554,AVENIDA,CERRO MILANO,27,28051,"entre farolas 42 y 44, junto area infantil y zona de calistenia, en parque",31064538,2019-08-02 00:00:00.0,FUE_18_0059,FUE25,ZV,PERSONAS,CASTIZA
5176482,Fuentes de beber,182,SANTA EUGENIA,18,VILLA DE VALLECAS,OPERATIVO,447590.59,4470489.16,ETRS89,40.38334527,-3.61744775,CAMINO,VASARES,4,28031,"entre farola 10 y area infantil, en parque vasares",31041866,2019-07-29 00:00:00.0,FUE_18_0061,FUE25,ZV,PERSONAS,CASTIZA
5180425,Fuentes de beber,093,CIUDAD UNIVERSITARIA,09,MONCLOA-ARAVACA,OPERATIVO,439306.83,4478412.78,ETRS89,40.45416254,-3.71579009,CALLE,VALLS FERRERA,5,28040,c/v c/valle de arán,11053418,2019-08-19 00:00:00.0,FUE_09_0127,FUE25,ZV,PERSONAS,CASTIZA
5188213,Fuentes de beber,095,VALDEMARIN,09,MONCLOA-ARAVACA,OPERATIVO,433919.35,4480213.64,ETRS89,40.46997425,-3.77950995,AVENIDA,VALDEMARIN,75 C,28023,,20057171,2019-09-02 00:00:00.0,FUE_09_0128,FUE25,VP,PERSONAS,MU-37A
5188216,Fuentes de beber,095,VALDEMARIN,09,MONCLOA-ARAVACA,OPERATIVO,435236.36,4479640.31,ETRS89,40.46491327,-3.76391686,CALLE,ARGENTONA,23,28023,cv c/cercis,20149180,2019-09-03 00:00:00.0,FUE_09_0129,FUE25,ZV,PERSONAS,CASTIZA
5188218,Fuentes de beber,096,EL PLANTIO,09,MONCLOA-ARAVACA,OPERATIVO,429572.56,4480577.7,ETRS89,40.47289659,-3.83082164,AVENIDA,VICTORIA,106,28023,,11056151,2019-08-27 00:00:00.0,FUE_09_0130,FUE25,ZV,PERSONAS,CASTIZA
5188852,Fuentes de beber,032,ADELFAS,03,RETIRO,OPERATIVO,442831.730,4472125.270,ETRS89,40.39777136,-3.67365634,CALLE,BARRILERO,2 B,28007,"en plaza de las californias, junto area infantil",31022226,2019-09-16 00:00:00.0,FUE_03_0048,FUE25,ZV,PERSONAS,CASTIZA
5191204,Fuentes de beber,033,ESTRELLA,03,RETIRO,OPERATIVO,443322.04,4473352.89,ETRS89,40.40886396,-3.66798834,PASAJE,LINCE,1,28007,"plazuela virgen de la estrella, entre area infantil y pista deportiva",31064418,2019-09-19 00:00:00.0,FUE_03_0049,FUE25,ZV,PERSONAS,CASTIZA
5191206,Fuentes de beber,036,NIÑO JESUS,03,RETIRO,OPERATIVO,442877.17,4474154.332,ETRS89,40.41605337,-3.67330305,CALLE,DOCE DE OCTUBRE,30,28009,"entre farolas 21 y 23, delante pza. doctor laguna",20104941,2019-09-13 00:00:00.0,FUE_03_0051,FUE25,ZV,PERSONAS,MU-37AA
5191218,Fuentes de beber,207,CANILLEJAS,20,SAN BLAS-CANILLEJAS,OPERATIVO,447853.6,4477229.81,ETRS89,40.44408585,-3.61490185,CALLE,NICOLASA GOMEZ,9,28022,"proximo a gta. con c/ boltaña, frente farola 2 en acera de parque",20158339,2019-09-13 00:00:00.0,FUE_20_0117,FUE25,ZV,PERSONAS,CASTIZA
5191220,Fuentes de beber,208,EL SALVADOR,20,SAN BLAS-CANILLEJAS,OPERATIVO,447729.91,4477240.39,ETRS89,40.44417339,-3.61636117,CALLE,ALCALA,552,28022,"c/v c/ rodríguez ayuso, junto farola 701 y area infantil",11137862,2019-09-19 00:00:00.0,FUE_20_0118,FUE25,ZV,PERSONAS,CASTIZA
5191221,Fuentes de beber,207,CANILLEJAS,20,SAN BLAS-CANILLEJAS,OPERATIVO,448509.37,4477536.81,ETRS89,40.44689236,-3.60719442,CALLE,GONZALO TORRENTE BALLESTER,2,28022,"junto farola 2, entre areas infantiles",31016091,2019-09-16 00:00:00.0,FUE_20_0119,FUE25,ZV,PERSONAS,CASTIZA
5191236,Fuentes de beber,205,ROSAS,20,SAN BLAS-CANILLEJAS,OPERATIVO,448697.91,4477709.33,ETRS89,40.44845818,-3.60498515,CALLE,MEQUINENZA,14,28022,"frente farolas 1003 y 1004 de gta. carlos llamas, junto carril bici",11137186,2019-09-13 00:00:00.0,FUE_20_0120,FUE25,VP,PERSONAS,CASTIZA
5192331,Fuentes de beber,208,EL SALVADOR,20,SAN BLAS-CANILLEJAS,OPERATIVO,445227.790,4477649.320,ETRS89,40.44769618,-3.64589933,CALLE,TELEMACO,2,28027,"entre farolas 1 y 2, junto area infantil en jardin",31009604,2019-09-24 00:00:00.0,FUE_20_0121,FUE25,ZV,PERSONAS,CASTIZA
5192404,Fuentes de beber,204,ARCOS,20,SAN BLAS-CANILLEJAS,OPERATIVO,447589.750,4475185.460,ETRS89,40.42565253,-3.61784436,CALLE,CONSERVEROS,17,28037,"frente farola 9, junto areas infantiles en parque",11135747,2019-09-27 00:00:00.0,FUE_20_0116,FUE25,ZV,PERSONAS,CASTIZA
5195307,Fuentes de beber,071,GAZTAMBIDE,07,CHAMBERI,OPERATIVO,439630.3,4476072.27,ETRS89,40.43310182,-3.71175307,CALLE,BLASCO DE GARAY,31,28015,c/v meléndez valdés (jardines concejal alejandro muñoz revenga),20013200,2019-09-25 00:00:00.0,FUE_07_0023,FUE25,ZV,PERSONAS,MU-37A
5195511,Fuentes de beber,072,ARAPILES,07,CHAMBERI,OPERATIVO,440249.01,4476162.24,ETRS89,40.43395698,-3.70446752,GLORIETA,QUEVEDO,6,28015,c/v bravo murillo,11039471,2019-09-25 00:00:00.0,FUE_07_0025,FUE25,VP,PERSONAS,MU-37A
5195524,Fuentes de beber,073,TRAFALGAR,07,CHAMBERI,OPERATIVO,440732.83,4476239.03,ETRS89,40.43468336,-3.69877082,GLORIETA,PINTOR SOROLLA,1,28010,c/v santa engracia 71,11040501,2019-09-25 00:00:00.0,FUE_07_0026,FUE25,VP,PERSONAS,MU-37A
5195826,Fuentes de beber,074,ALMAGRO,07,CHAMBERI,OPERATIVO,441364.71,4476012.35,ETRS89,40.43268611,-3.69130044,GLORIETA,RUBEN DARIO,5,28010,c/v almagro,11041187,2019-10-01 00:00:00.0,FUE_07_0027,FUE25,VP,PERSONAS,MU-37A
5195834,Fuentes de beber,075,RIOS ROSAS,07,CHAMBERI,OPERATIVO,441097.21,4476751.74,ETRS89,40.43932797,-3.69452254,CALLE,BRETON DE LOS HERREROS,46,28003,c/v fernández de la hoz,11041596,2019-10-04 00:00:00.0,FUE_07_0028,FUE25,VP,PERSONAS,MU-37A
5202139,Fuentes de beber,012,EMBAJADORES,01,CENTRO,OPERATIVO,441076.94,4473375.67,ETRS89,40.40891329,-3.69444867,CALLE,DOCTOR MATA,2,28012,c/v plaza juan goytisolo,11003136,2019-10-15 00:00:00.0,FUE_01_0073,FUE25,ZV,PERSONAS,OTRO
5205390,Fuentes de beber,201,SIMANCAS,20,SAN BLAS-CANILLEJAS,OPERATIVO,447168.08,4476151.6,ETRS89,40.43432942,-3.62289528,CALLE,EMILIO MUÑOZ,57,28037,"c/v c/castillo de ucles, frente farola 52, junto pistas deportivas",11133638,2019-10-24 00:00:00.0,FUE_20_0122,FUE25,VP,PERSONAS,MU-37A
5205477,Fuentes de beber,012,EMBAJADORES,01,CENTRO,OPERATIVO,439879.790,4473088.970,ETRS89,40.40624496,-3.70852981,PLAZA,CAMPILLO DEL MUNDO NUEVO,3 B,28005,,31035660,2019-10-15 00:00:00.0,FUE_01_0076,FUE25,ZV,PERSONAS,MU-37A
5205478,Fuentes de beber,011,PALACIO,01,CENTRO,OPERATIVO,439480.39,4473479.01,ETRS89,40.40972968,-3.71327357,CALLE,CALATRAVA,37,28005,c/v calle del ángel,20000214,2019-10-15 00:00:00.0,FUE_01_0077,FUE25,VP,PERSONAS,MU-37A
5205479,Fuentes de beber,011,PALACIO,01,CENTRO,OPERATIVO,439403.92,4473600.19,ETRS89,40.41081576,-3.71418631,PLAZA,SAN FRANCISCO,5,28005,c/v calle san buenaventura,11001067,,FUE_01_0078,FUE25,VP,PERSONAS,MU-37A
5205480,Fuentes de beber,011,PALACIO,01,CENTRO,OPERATIVO,438926.15,4474579.57,ETRS89,40.41960353,-3.71991092,PASEO,VIRGEN DEL PUERTO,1,28005,c/v gta san vicente,31002668,2019-10-15 00:00:00.0,FUE_01_0079,FUE25,ZV,PERSONAS,MU-37A
5205483,Fuentes de beber,151,VENTAS,15,CIUDAD LINEAL,OPERATIVO,444256.68,4474773.1,ETRS89,40.42172112,-3.65709811,AVENIDA,MARQUES DE CORBERA,2,28017,junto a carril bici,20104438,2019-10-15 00:00:00.0,FUE_15_0126,FUE25,VP,PERSONAS,CASTIZA
5205485,Fuentes de beber,151,VENTAS,15,CIUDAD LINEAL,OPERATIVO,444081.42,4475329.42,ETRS89,40.42672099,-3.65921286,CALLE,SAN EMILIO,39,28017,frente al 39,11104325,2019-10-15 00:00:00.0,FUE_15_0127,FUE25,ZV,PERSONAS,CASTIZA
5205486,Fuentes de beber,152,PUEBLO NUEVO,15,CIUDAD LINEAL,OPERATIVO,445702.57,4475018.57,ETRS89,40.42402806,-3.64007605,CALLE,ARRIAGA,73,28017,frente al 73. parque arriaga. área infantil,11107027,2019-10-31 00:00:00.0,FUE_15_0128,FUE25,ZV,PERSONAS,CASTIZA
5205487,Fuentes de beber,152,PUEBLO NUEVO,15,CIUDAD LINEAL,OPERATIVO,445987.61,4475938.06,ETRS89,40.43232991,-3.63679423,CALLE,JOSE ARCONES GIL,58,28017,"próximo a c/ alucas, 2",20177602,2019-10-15 00:00:00.0,FUE_15_0129,FUE25,VP,PERSONAS,MU-37A
5209645,Fuentes de beber,044,GUINDALERA,04,SALAMANCA,OPERATIVO,443134.070,4475749.440,ETRS89,40.43044053,-3.67041783,CALLE,FRANCISCO SILVELA,12,28028,"c/v c/ florestan aguilar, junto farola 20",11017054,2019-10-31 00:00:00.0,FUE_04_0045,FUE25,VP,PERSONAS,MU-37A
5209646,Fuentes de beber,044,GUINDALERA,04,SALAMANCA,OPERATIVO,443889.59,4476434.97,ETRS89,40.43666745,-3.66157176,CALLE,BRESCIA,21,28028,"proximo a farola 30, en parque junto area infantil",31007330,2019-11-04 00:00:00.0,FUE_04_0049,FUE25,ZV,PERSONAS,CASTIZA
5209651,Fuentes de beber,044,GUINDALERA,04,SALAMANCA,OPERATIVO,442813.21,4476215.66,ETRS89,40.43461848,-3.6742423,CALLE,FRANCISCO SILVELA,52 B,28028,"c/v c/ alonso heredia, junto farola 66",31031858,,FUE_04_0046,FUE25,VP,PERSONAS,MU-37A
5211266,Fuentes de beber,044,GUINDALERA,04,SALAMANCA,FUERA_DE_SERVICIO,443510.36,4476706.38,ETRS89,40.43908678,-3.66606693,CALLE,LA POVEDA,1,28028,"entre farolas 1 y 2, en parque junto area infantil",11018256,2019-11-13 00:00:00.0,FUE_04_0048,FUE25,ZV,PERSONAS,CASTIZA
5211481,Fuentes de beber,044,GUINDALERA,04,SALAMANCA,OPERATIVO,443892.640,4477135.200,ETRS89,40.44297569,-3.66159764,AVENIDA,BAVIERA,20,28028,junto farola 33 y area infantil,11017901,,FUE_04_0050,FUE25,ZV,PERSONAS,MU-37A
5211483,Fuentes de beber,166,VALDEFUENTES,16,HORTALEZA,OPERATIVO,446617.0,4480835.31,ETRS89,40.47648766,-3.62978606,CALLE,MARIA MOLINER,6,28055,c/v c/ maría blanchar,20160485,2019-11-14 00:00:00.0,FUE_16_0161,FUE25,ZV,PERSONAS,CASTIZA
5212756,Fuentes de beber,061,BELLAS VISTAS,06,TETUAN,OPERATIVO,439905.52,4478695.61,ETRS89,40.45675389,-3.70875668,CALLE,FRANCOS RODRIGUEZ,51,28039,,20010664,2019-11-25 00:00:00.0,FUE_06_0087,FUE25,VP,PERSONAS,MU-37A
5212760,Fuentes de beber,061,BELLAS VISTAS,06,TETUAN,OPERATIVO,439768.4,4478769.62,ETRS89,40.45741067,-3.71038078,CALLE,FRANCOS RODRIGUEZ,67,28039,frente nº84,11028322,2019-10-29 00:00:00.0,FUE_06_0088,FUE25,ZV,PERSONAS,MU-37A
5214439,Fuentes de beber,162,PIOVERA,16,HORTALEZA,OPERATIVO,445895.51,4477820.79,ETRS89,40.4492846,-3.63804034,AVENIDA,CARONDELET,37,28043,pinar de barajas z.f.,31054811,,FUE_16_0166,FUE25,ZV,PERSONAS,MU-S37A
5216163,Fuentes de beber,191,CASCO HISTORICO DE VICALVARO,19,VICALVARO,OPERATIVO,447810.72,4473254.25,ETRS89,40.40826886,-3.61508112,CALLE,CASALARREINA,32,28032,"junto area infantil, en parque la maceta",31045386,2019-11-25 00:00:00.0,FUE_19_0141,FUE25,ZV,PERSONAS,CASTIZA
5216216,Fuentes de beber,191,CASCO HISTORICO DE VICALVARO,19,VICALVARO,OPERATIVO,448972.770,4472737.450,ETRS89,40.40368522,-3.60134497,CALLE,SAN CIPRIANO,70,28032,junto area infantil de parque san cipriano,31049236,2019-11-27 00:00:00.0,FUE_19_0142,FUE25,ZV,PERSONAS,CASTIZA
5216235,Fuentes de beber,193,VALDERRIVAS,19,VICALVARO,FUERA_DE_SERVICIO,448541.28,4471642.73,ETRS89,40.39379669,-3.60634123,CALLE,MINERVA,157,28032,"posterior, junto area canina en parque lineal valderribas sur",20180442,2019-11-28 00:00:00.0,FUE_19_0143,FUE25,ZV,PERSONAS_Y_MASCOTAS,MIXTA TERRIER
5219912,Fuentes de beber,072,ARAPILES,07,CHAMBERI,OPERATIVO,439733.47,4476105.84,ETRS89,40.43341171,-3.71053998,CALLE,GALILEO,35,28015,parque josé luis sampedro. recinto cerrado/vallado,31044128,2019-12-26 00:00:00.0,FUE_07_0032,FUE25,ZV,MASCOTAS,BEBEDERO TERRIER
5220275,Fuentes de beber,127,PRADOLONGO,12,USERA,OPERATIVO,439845.78,4469898.55,ETRS89,40.3775016,-3.70862926,CALLE,CRISTO DE LA VICTORIA,245,28026,"posterior a punto limpio usera, en parque de pradolongo",31028698,2023-06-16 00:00:00.0,FUE_12_0075,FUE25,ZV,PERSONAS_Y_MASCOTAS,MIXTA ESTELA
5220283,Fuentes de beber,127,PRADOLONGO,12,USERA,OPERATIVO,440330.577,4469741.157,ETRS89,40.37611857,-3.70290392,CALLE,DOCTOR TOLOSA LATOUR,14 B,28026,"en suroeste campo de futbol, proximo a mirador parque de pradolongo",31070728,2023-06-30 00:00:00.0,FUE_12_0078,FUE25,ZV,PERSONAS_Y_MASCOTAS,MIXTA ESTELA
5220287,Fuentes de beber,127,PRADOLONGO,12,USERA,OPERATIVO,439933.398,4469397.881,ETRS89,40.37299763,-3.70754999,AVENIDA,POBLADOS,167,28041,"detras de gaolinera, en area canina de pradolongo",31007158,2020-01-10 00:00:00.0,FUE_12_0079,FUE25,ZV,PERSONAS_Y_MASCOTAS,MIXTA ESTELA
5228637,Fuentes de beber,134,PALOMERAS SURESTE,13,PUENTE DE VALLECAS,OPERATIVO,445369.64,4470534.82,ETRS89,40.38361395,-3.64361567,AVENIDA,RAFAEL ALBERTI,38,28018,"entre farola 42 y pista deportiva, en parque de la paloma",20176100,2020-01-16 00:00:00.0,FUE_13_0159,FUE25,ZV,PERSONAS,MU-37A
5231482,Fuentes de beber,183,ENSANCHE DE VALLECAS,18,VILLA DE VALLECAS,OPERATIVO,449087.161,4468187.614,ETRS89,40.36270407,-3.5996334,CALLE,CAÑADA DEL SANTISIMO,45,28051,"frente farola 43, entre area infantil y metro las suertes, en parque victoria",31026236,2020-01-14 00:00:00.0,FUE_18_0064,FUE25,ZV,PERSONAS,MU-37A
5232821,Fuentes de beber,175,ANGELES,17,VILLAVERDE,OPERATIVO,440506.98,4467882.12,ETRS89,40.35938395,-3.7006526,CALLE,EL LUCERO DEL ALBA,4,28041,"en zona central parque de ingenieros, proximo a area infantil",31052246,2020-01-21 00:00:00.0,FUE_17_0129,FUE25,ZV,PERSONAS,MU-37A
5241775,Fuentes de beber,174,LOS ROSALES,17,VILLAVERDE,OPERATIVO,441827.91,4467288.16,ETRS89,40.35412639,-3.68504284,CALLE,PILAR LORENGAR,19,28021,"entre farola 15 y area infantil, en parque fuente pilar longengar",20148358,2020-01-28 00:00:00.0,FUE_17_0130,FUE25,ZV,PERSONAS,MU-37A
5242891,Fuentes de beber,171,VILLAVERDE ALTO - CASCO HISTORICO DE VILLAVERDE,17,VILLAVERDE,OPERATIVO,439583.84,4466204.96,ETRS89,40.34420879,-3.7113649,CALLE,VILLASTAR,6,28021,"c/v  c/ angosta, en zona estancial junto area infantil",31051710,2020-01-24 00:00:00.0,FUE_17_0126,FUE25,ZV,PERSONAS,CASTIZA
5242894,Fuentes de beber,171,VILLAVERDE ALTO - CASCO HISTORICO DE VILLAVERDE,17,VILLAVERDE,OPERATIVO,440606.604,4465083.829,ETRS89,40.3341824,-3.69921903,CALLE,TRANSVERSAL SEXTA,18,28021,c/v principal,31046760,2020-01-24 00:00:00.0,FUE_17_0125,FUE25,ZV,PERSONAS,CASTIZA
5249159,Fuentes de beber,081,EL PARDO,08,FUENCARRAL-EL PARDO,OPERATIVO,434081.123,4485588.43,ETRS89,40.51840428,-3.77816095,AVENIDA,PADRE CIPRIANO,23,28048,frente al 23. cv calle san paciano,31044231,2020-01-30 00:00:00.0,FUE_08_0170,FUE25,VP,PERSONAS,MU-37B
5249225,Fuentes de beber,073,TRAFALGAR,07,CHAMBERI,OPERATIVO,440316.71,4475912.03,ETRS89,40.43170784,-3.70364589,CALLE,FUENCARRAL,133,28010,,11039962,2020-01-22 00:00:00.0,FUE_07_0033,FUE25,VP,PERSONAS,MU-37A
5249801,Fuentes de beber,015,UNIVERSIDAD,01,CENTRO,OPERATIVO,439840.89,4475100.89,ETRS89,40.42436645,-3.70917849,PLAZA,CONDE DE TORENO,1,28015,c/v calle reyes,11006737,2020-01-28 00:00:00.0,FUE_01_0081,FUE25,VP,PERSONAS,FUENTE_ACCESIBLE
5250202,Fuentes de beber,015,UNIVERSIDAD,01,CENTRO,OPERATIVO,439827.58,4475257.57,ETRS89,40.42577694,-3.70935021,CALLE,AMANIEL,10,28015,c/v travesía conde duque,20006182,2020-01-28 00:00:00.0,FUE_01_0082,FUE25,VP,PERSONAS,FUENTE_ACCESIBLE
5270040,Fuentes de beber,208,EL SALVADOR,20,SAN BLAS-CANILLEJAS,OPERATIVO,446284.0,4476778.64,ETRS89,40.43992153,-3.63337111,CALLE,RIOBAMBA,6,28027,entre farola 2 y area infantil,20127997,2023-06-02 00:00:00.0,FUE_20_0123,FUE25,VP,PERSONAS,MU-37A
5272335,Fuentes de beber,021,IMPERIAL,02,ARGANZUELA,OPERATIVO,439257.98,4473119.79,ETRS89,40.40647746,-3.71586038,CALLE,VILLOSLADA,9,28005,junto área infantil parque amarillo,31001526,2020-02-10 00:00:00.0,FUE_02_0061,FUE25,ZV,PERSONAS,MU-37A
5272337,Fuentes de beber,024,LEGAZPI,02,ARGANZUELA,OPERATIVO,441643.21,4471655.95,ETRS89,40.39346103,-3.6876176,CALLE,PARROCO EUSEBIO CUENCA,64,28045,frente farola 48 c/ antracita,20127799,,FUE_02_0063,FUE25,ZV,PERSONAS,MU-37A
5279210,Fuentes de beber,087,MIRASIERRA,08,FUENCARRAL-EL PARDO,OPERATIVO,438025.315,4482225.1,ETRS89,40.48841061,-3.73127505,CALLE,MARIA DE MAEZTU,7,28049,cv calle irene caba alba. junto a la zona infantil,31062311,,FUE_08_0171,FUE25,ZV,PERSONAS,EGEA
529382,Fuentes de beber,015,UNIVERSIDAD,01,CENTRO,OPERATIVO,439892.5,4475419.8,ETRS89,40.42724307,-3.70860028,PLAZA,COMENDADORAS,1,28015,plaza comendadoras,11006373,,FUE_01_0001,FUE25,ZV,PERSONAS,OTRO
529385,Fuentes de beber,011,PALACIO,01,CENTRO,OPERATIVO,439636.432,4473693.57,ETRS89,40.41167387,-3.71145498,PLAZA,CARROS,3,28005,plaza de los carros,11000945,,FUE_01_0009,FUE25,ZV,PERSONAS,MU-37C
529387,Fuentes de beber,012,EMBAJADORES,01,CENTRO,OPERATIVO,440273.265,4473434.89,ETRS89,40.40938949,-3.70392542,CALLE,MESON DE PAREDES,50,28012,fuente de cabestros,11002149,1934-01-01 00:00:00.0,FUE_01_0032,FUE25,VP,PERSONAS,PATRIMONIO_HISTORICO
529390,Fuentes de beber,062,CUATRO CAMINOS,06,TETUAN,OPERATIVO,440926.516,4478258.093,ETRS89,40.45288575,-3.69667515,AVENIDA,GENERAL PERON,13,28020,"jardines perón, junto a terraza restaurante",11029984,2023-07-25 00:00:00.0,FUE_06_0021,FUE25,ZV,PERSONAS,METROPOLIS
529391,Fuentes de beber,064,ALMENARA,06,TETUAN,OPERATIVO,441431.81,4480222.904,ETRS89,40.47062136,-3.69089777,CALLE,MARTIRES DE LA VENTILLA,29,28029,,11031735,,FUE_06_0035,FUE25,ZV,PERSONAS,FUENTE_ACCESIBLE
529392,Fuentes de beber,065,VALDEACEDERAS,06,TETUAN,OPERATIVO,439967.773,4479510.33,ETRS89,40.46409771,-3.70809958,CALLE,PANIZO,68,28039,parque agustin rodriguez sahagun,20012728,,FUE_06_0006,FUE25,ZV,PERSONAS,MU-37A
529394,Fuentes de beber,065,VALDEACEDERAS,06,TETUAN,OPERATIVO,440439.032,4479973.63,ETRS89,40.46830521,-3.70258481,CALLE,JIRAFA,1,28029,cv calle esperanza sánchez carrascosa,11034612,,FUE_06_0062,FUE25,VP,PERSONAS,MU-37A
529395,Fuentes de beber,061,BELLAS VISTAS,06,TETUAN,FUERA_DE_SERVICIO,439634.364,4478412.38,ETRS89,40.45418279,-3.71192754,CALLE,NUMANCIA,6,28039,jardines de numancia,20108308,,FUE_06_0045,FUE25,ZV,PERSONAS,OTRO
529403,Fuentes de beber,062,CUATRO CAMINOS,06,TETUAN,OPERATIVO,440881.27,4478321.16,ETRS89,40.45345067,-3.69721459,AVENIDA,PRESIDENTE CARMONA,5,28020,cv mártires de paracuellos,11029977,,FUE_06_0020,FUE25,ZV,PERSONAS,MU-37A
529404,Fuentes de beber,012,EMBAJADORES,01,CENTRO,OPERATIVO,439894.051,4473423.03,ETRS89,40.40925536,-3.7083933,PLAZA,GENERAL VARA DE REY,3,28005,,11001876,,FUE_01_0038,FUE25,ZV,PERSONAS,MU-37A
529405,Fuentes de beber,065,VALDEACEDERAS,06,TETUAN,OPERATIVO,440609.802,4479990.56,ETRS89,40.46846995,-3.70057212,CALLE,PLATANO,34,28029,c/v divino redentor,11033553,,FUE_06_0048,FUE25,ZV,PERSONAS,BRAVO MURILLO
529407,Fuentes de beber,062,CUATRO CAMINOS,06,TETUAN,OPERATIVO,440921.57,4478527.65,ETRS89,40.45531368,-3.69675856,PLAZA,SAN AMARO,10,28020,junto zona infantil,31047925,,FUE_06_0018,FUE25,ZV,PERSONAS,MU-37A
529413,Fuentes de beber,065,VALDEACEDERAS,06,TETUAN,OPERATIVO,440176.437,4480317.05,ETRS89,40.47138,-3.70571456,CALLE,SINESIO DELGADO,32,28029,parque agustin rodriguez sahagun,20047805,,FUE_06_0033,FUE25,ZV,PERSONAS,MU-37A
529414,Fuentes de beber,065,VALDEACEDERAS,06,TETUAN,OPERATIVO,440255.37,4479946.29,ETRS89,40.46804574,-3.70474857,PLAZA,CALICANTO,1,28029,plaza de calicanto,11034741,,FUE_06_0046,FUE25,ZV,PERSONAS,MU-37A
529415,Fuentes de beber,062,CUATRO CAMINOS,06,TETUAN,OPERATIVO,440560.354,4477654.14,ETRS89,40.44741898,-3.7009366,CALLE,ARTISTAS,28,28020,cv calle de cicerón,20010948,,FUE_06_0055,FUE25,VP,PERSONAS,MU-37A
529416,Fuentes de beber,011,PALACIO,01,CENTRO,OPERATIVO,439337.91,4473732.94,ETRS89,40.41200683,-3.7149769,PLAZA,GABRIEL MIRO,8,28005,a la entrada a pista deportivas,11001058,,FUE_01_0039,FUE25,VP,PERSONAS,PIEDRA VP
529417,Fuentes de beber,012,EMBAJADORES,01,CENTRO,OPERATIVO,439737.475,4473188.05,ETRS89,40.40712723,-3.71021628,CALLE,CAPITAN SALAZAR MARTINEZ,11,28005,mercado puerta de toledo,11001295,,FUE_01_0018,FUE25,ZV,PERSONAS,MU-37A
529420,Fuentes de beber,061,BELLAS VISTAS,06,TETUAN,OPERATIVO,439729.928,4478121.71,ETRS89,40.45157125,-3.71077299,CALLE,FRANCISCO BALSEIRO,4,28039,c/v av pablo iglesias 60,31056619,,FUE_06_0042,FUE25,ZV,PERSONAS,MU-37A
529424,Fuentes de beber,012,EMBAJADORES,01,CENTRO,OPERATIVO,440215.543,4473102.27,ETRS89,40.40638895,-3.70457442,CALLE,CASINO,3,28005,parque casino de la reina. recinto cerrado/vallado,11002270,2023-10-05 00:00:00.0,FUE_01_0029,FUE25,ZV,PERSONAS,OTRO
529425,Fuentes de beber,065,VALDEACEDERAS,06,TETUAN,OPERATIVO,440779.339,4479970.444,ETRS89,40.46830084,-3.69857051,CALLE,PINOS ALTA,62,28029,"frente al 62, junto al jardín pinos alta",11033087,,FUE_06_0017,FUE25,VP,PERSONAS,MU-37A
529427,Fuentes de beber,062,CUATRO CAMINOS,06,TETUAN,OPERATIVO,440786.15,4477869.17,ETRS89,40.44937218,-3.69829416,CALLE,AVIADOR ZORITA,25,28020,,11029326,,FUE_06_0052,FUE25,VP,PERSONAS,PIEDRA VP
529430,Fuentes de beber,015,UNIVERSIDAD,01,CENTRO,FUERA_DE_SERVICIO,440151.64,4474817.1,ETRS89,40.42183236,-3.7054888,CALLE,LUNA,8,28004,plaza de santa maría soledad torres acosta,11006992,2016-11-16 00:00:00.0,FUE_01_0042,FUE25,VP,PERSONAS,MU-37B
529434,Fuentes de beber,061,BELLAS VISTAS,06,TETUAN,OPERATIVO,439854.26,4478128.50,ETRS89,40.45164143,-3.70930747,AVENIDA,DOCTOR FEDERICO RUBIO Y GALI,42,28039,cv calle san valeriano,11027878,,FUE_06_0059,FUE25,VP,PERSONAS,PIEDRA VP
3570475,Fuentes de beber,136,NUMANCIA,13,PUENTE DE VALLECAS,OPERATIVO,444334.78,4472631.59,ETRS89,40.40243441,-3.65599017,CALLE,MARUJA GARCIA ROMERO,7,28038,"frente farolas 7 y 8, junto carril bici",31001905,2016-12-05 00:00:00.0,FUE_13_0153,FUE25,VP,PERSONAS,MU-S37A
3576057,Fuentes de beber,046,CASTELLANA,04,SALAMANCA,OPERATIVO,441859,4476052.63,ETRS89,40.43308367,-3.68547693,CALLE,CLAUDIO COELLO,121,28006,"c/v c/ juan bravo, junto farola 7",11019823,2017-11-16 00:00:00.0,FUE_04_0041,FUE25,VP,PERSONAS,FUENTE_ACCESIBLE
3576059,Fuentes de beber,124,ALMENDRALES,12,USERA,FUERA_DE_SERVICIO,440999.91,4470330.46,ETRS89,40.38147499,-3.69507431,CALLE,ANTONIO LOPEZ,223,28026,c/v añafil,11083665,2017-11-16 00:00:00.0,FUE_12_0067,FUE25,ZV,PERSONAS,MU-37A
3576086,Fuentes de beber,183,ENSANCHE DE VALLECAS,18,VILLA DE VALLECAS,OPERATIVO,448211.53,4469919.46,ETRS89,40.37825185,-3.6100864,CALLE,RAYO VALLECANO DE MADRID,1,28051,"proximo a c/ real de arganda, junto farola 1",31025439,2017-11-16 00:00:00.0,FUE_18_0055,FUE25,VP,PERSONAS,MU-S37A
3852403,Fuentes de beber,091,CASA DE CAMPO,09,MONCLOA-ARAVACA,OPERATIVO,437760.85,4475828.39,ETRS89,40.43076706,-3.73376814,PLAZA,CANCILLERIA,6,28008,"con vuelta calle loeches, junto pista deportiva",11052035,2017-12-13 00:00:00.0,FUE_09_0121,FUE25,ZV,PERSONAS,MU-37A
529435,Fuentes de beber,063,CASTILLEJOS,06,TETUAN,OPERATIVO,440761.581,4478809.95,ETRS89,40.45784537,-3.69867165,CALLE,LAZAGA,10,28020,plaza de san german,31002785,,FUE_06_0041,FUE25,ZV,PERSONAS,MU-37A
529441,Fuentes de beber,013,CORTES,01,CENTRO,OPERATIVO,440972.22,4473910.7,ETRS89,40.41372568,-3.69573242,PLAZA,JESUS,4,28014,,20005236,,FUE_01_0034,FUE25,VP,PERSONAS,OTRO
529442,Fuentes de beber,066,BERRUGUETE,06,TETUAN,OPERATIVO,440706.337,4479024.1,ETRS89,40.45977059,-3.69934317,CALLE,BRAVO MURILLO,269,28020,cv calle algodonales,11036539,,FUE_06_0066,FUE25,VP,PERSONAS,BRAVO MURILLO
529443,Fuentes de beber,065,VALDEACEDERAS,06,TETUAN,OPERATIVO,440238.31,4480304.98,ETRS89,40.47127573,-3.70498358,CALLE,SINESIO DELGADO,30,28029,parque agustin rodriguez sahagun,20047802,,FUE_06_0030,FUE25,ZV,PERSONAS,MU-37A
529446,Fuentes de beber,064,ALMENARA,06,TETUAN,OPERATIVO,440663.56,4480472.61,ETRS89,40.47281629,-3.69998312,AVENIDA,ASTURIAS,74,28029,avda. asturias-pergolas,31042814,,FUE_06_0024,FUE25,ZV,PERSONAS,OTRO
529448,Fuentes de beber,011,PALACIO,01,CENTRO,OPERATIVO,439844.35,4473824.59,ETRS89,40.41286921,-3.70901699,CALLE,ALMENDRO,3,28005,,20003928,2017-01-12 00:00:00.0,FUE_01_0043,FUE25,VP,PERSONAS,MU-37C
529449,Fuentes de beber,012,EMBAJADORES,01,CENTRO,OPERATIVO,439993.672,4473495.518,ETRS89,40.40991555,-3.70722612,PLAZA,CASCORRO,11,28005,plaza cascorro,11001864,,FUE_01_0036,FUE25,VP,PERSONAS,PIEDRA VP
529450,Fuentes de beber,064,ALMENARA,06,TETUAN,OPERATIVO,440843.628,4480063.6,ETRS89,40.46914461,-3.6978209,PLAZA,DONOSO,4,28029,,11033186,,FUE_06_0069,FUE25,VP,PERSONAS,PIEDRA VP
529453,Fuentes de beber,063,CASTILLEJOS,06,TETUAN,OPERATIVO,440808.607,4478773.9,ETRS89,40.45752397,-3.69811369,CALLE,INFANTA MERCEDES,47 B,28020,plaza de san german,31050972,,FUE_06_0040,FUE25,ZV,PERSONAS,MU-37A
529454,Fuentes de beber,064,ALMENARA,06,TETUAN,OPERATIVO,441330.19,4480548.29,ETRS89,40.4735454,-3.69212654,CALLE,VIA LIMITE,31,28029,parque de la ventilla,11032295,,FUE_06_0013,FUE25,ZV,PERSONAS,MU-37A
529455,Fuentes de beber,065,VALDEACEDERAS,06,TETUAN,OPERATIVO,440176.128,4480229.86,ETRS89,40.47059454,-3.70570998,PASEO,DIRECCION,297,28029,parque agustin rodriguez sahagun,31028421,,FUE_06_0029,FUE25,ZV,PERSONAS,MU-37A
529457,Fuentes de beber,015,UNIVERSIDAD,01,CENTRO,OPERATIVO,439766.539,4475585.2,ETRS89,40.42872395,-3.71010079,CALLE,SANTA CRUZ DE MARCENADO,19,28015,jardines conde duque,20103306,,FUE_01_0002,FUE25,ZV,PERSONAS,OTRO
3852673,Fuentes de beber,075,RIOS ROSAS,07,CHAMBERI,OPERATIVO,440534.352,4476924.724,ETRS89,40.44084623,-3.70117492,CALLE,SANTA ENGRACIA,120 B,28003,,20065407,2023-02-27 00:00:00.0,FUE_07_0038,FUE25,VP,PERSONAS,MU-37A
4741279,Fuentes de beber,191,CASCO HISTORICO DE VICALVARO,19,VICALVARO,OPERATIVO,448570.15,4472882.83,ETRS89,40.40497013,-3.60610125,CALLE,LAGO VAN,16,28032,"frente nº 17, junto area infantil en zona estancial",31011786,2018-02-09 00:00:00.0,FUE_19_0102,FUE25,ZV,PERSONAS,MU-S37A
4742955,Fuentes de beber,151,VENTAS,15,CIUDAD LINEAL,OPERATIVO,444779.88,4475635.8,ETRS89,40.42952768,-3.65100598,CALLE,SOR MARIA DE AGREDA,2,28017,"próximo a c/ vereda del carmen, 6",11104870,2018-02-20 00:00:00.0,FUE_15_0124,FUE25,ZV,PERSONAS,MU-37A
4784162,Fuentes de beber,166,VALDEFUENTES,16,HORTALEZA,OPERATIVO,446126.12,4481318.09,ETRS89,40.48080508,-3.6356179,CALLE,TORENO,3 B,28055,junto pista deportiva,31054377,2019-04-29 00:00:00.0,FUE_16_0153,FUE25,ZV,PERSONAS,CASTIZA
4784587,Fuentes de beber,087,MIRASIERRA,08,FUENCARRAL-EL PARDO,OPERATIVO,438302.37,4482528.05,ETRS89,40.49116032,-3.72803566,CALLE,FEDERICA MONTSENY,5,28049,entre calle federica montseny y calle mari pepa colomer,31049748,,FUE_08_0156,FUE25,ZV,PERSONAS,EGEA
4784714,Fuentes de beber,051,EL VISO,05,CHAMARTIN,OPERATIVO,442391.577,4477006.802,ETRS89,40.44171637,-3.67928482,CALLE,DUQUE DE SEVILLA,1,28002,frente a calle duque de sevilla 4,20009442,,FUE_05_0020,FUE25,VP,PERSONAS,MU-37A
4785335,Fuentes de beber,102,PUERTA DEL ANGEL,10,LATINA,OPERATIVO,437294.132,4473538.095,ETRS89,40.41010013,-3.73904425,PASEO,EXTREMADURA,156,28011,junto acceso metro alto de extrmadura y area infantil,11062514,2018-06-01 00:00:00.0,FUE_10_0111,FUE25,VP,PERSONAS,PIEDRA VP
4785336,Fuentes de beber,086,VALVERDE,08,FUENCARRAL-EL PARDO,OPERATIVO,442924.48,4483727.18,ETRS89,40.50229326,-3.67360624,AVENIDA,CAMINO DE SANTIAGO,25,28050,las tablas: zonas infantiles entre las calles de san juan de ortega y avda camino de santiago,31049645,2018-06-01 00:00:00.0,FUE_08_0157,FUE25,VP,PERSONAS,FUENTE_ACCESIBLE
4796175,Fuentes de beber,143,MARROQUINA,14,MORATALAZ,OPERATIVO,444813.730,4473693.650,ETRS89,40.41203395,-3.6504384,AVENIDA,DOCTOR GARCIA TAPIA,92,28030,"entre area infantil y pista deportiva, en parque",31043374,2018-07-19 00:00:00.0,FUE_14_0098,FUE25,VP,PERSONAS,PIEDRA VP
4796211,Fuentes de beber,012,EMBAJADORES,01,CENTRO,OPERATIVO,440519.31,4473379.46,ETRS89,40.40890777,-3.70102061,PLAZA,LAVAPIES,5,28012,frente a zona infantil,11002854,2018-07-18 00:00:00.0,FUE_01_0047,FUE25,ZV,PERSONAS,MU-37A
4798068,Fuentes de beber,205,ROSAS,20,SAN BLAS-CANILLEJAS,OPERATIVO,448434.99,4476324.63,ETRS89,40.4359677,-3.6079731,CALLE,LA ILIADA,31,28022,"junto farola 19, en acera del parque",11137297,2017-08-09 00:00:00.0,FUE_20_0113,FUE25,VP,PERSONAS,PIEDRA VP
4813505,Fuentes de beber,082,FUENTELARREINA,08,FUENCARRAL-EL PARDO,OPERATIVO,437886.924,4482104.68,ETRS89,40.48731549,-3.73289607,CALLE,MAETZU,1,28049,,31054536,,FUE_08_0174,FUE25,ZV,PERSONAS,EGEA
4813558,Fuentes de beber,034,IBIZA,03,RETIRO,OPERATIVO,442974.13,4474728.73,ETRS89,40.4212345,-3.67221176,CALLE,O'DONNELL,48,28009,junto farola 92 y acceso hospital materno infantil,11012210,2020-07-15 00:00:00.0,FUE_03_0055,FUE25,VP,PERSONAS,CASTIZA
4828255,Fuentes de beber,141,PAVONES,14,MORATALAZ,OPERATIVO,445856.130,4472071.930,ETRS89,40.39749296,-3.6380152,CALLE,FUENTE CARRANTONA,4,28030,"frente farola 152, junto area infantil",20098128,2018-09-10 00:00:00.0,FUE_14_0099,FUE25,ZV,PERSONAS,MU-S37A
4939826,Fuentes de beber,044,GUINDALERA,04,SALAMANCA,OPERATIVO,442821.18,4476566.07,ETRS89,40.43777569,-3.67417986,CALLE,PILAR DE ZARAGOZA,91,28028,"c/v c/ coslada, frente farola 50 junto area infantil",11018822,2018-10-05 00:00:00.0,FUE_04_0042,FUE25,VP,PERSONAS,MU-37A
529461,Fuentes de beber,015,UNIVERSIDAD,01,CENTRO,OPERATIVO,439829.241,4475604.71,ETRS89,40.42890425,-3.70936348,CALLE,SANTA CRUZ DE MARCENADO,18,28015,"cv calle conde duque, fte. farmacia",20006162,,FUE_01_0041,FUE25,VP,PERSONAS,PIEDRA VP
529462,Fuentes de beber,064,ALMENARA,06,TETUAN,OPERATIVO,441128.676,4479811.58,ETRS89,40.46689456,-3.69443526,CALLE,AGUILEÑAS,15,28029,cv calle cañaveral,11031002,,FUE_06_0073,FUE25,VP,PERSONAS,PIEDRA VP
529466,Fuentes de beber,012,EMBAJADORES,01,CENTRO,OPERATIVO,440154.645,4473056.246,ETRS89,40.40596997,-3.70528774,RONDA,TOLEDO,9,28005,parque casino de la reina. recinto cerrado/vallado,20150618,2023-10-05 00:00:00.0,FUE_01_0008,FUE25,ZV,PERSONAS,OTRO
529468,Fuentes de beber,011,PALACIO,01,CENTRO,OPERATIVO,439843.296,4473930.02,ETRS89,40.4138189,-3.70903938,CALLE,SAN JUSTO,1,28005,plaza puerta cerrada,11000634,1850-01-01 00:00:00.0,FUE_01_0033,FUE25,VP,PERSONAS,PATRIMONIO_HISTORICO
529469,Fuentes de beber,064,ALMENARA,06,TETUAN,OPERATIVO,440666.716,4480515.66,ETRS89,40.47320433,-3.69994992,AVENIDA,ASTURIAS,74,28029,avda. asturias-pergolas,31042814,,FUE_06_0023,FUE25,ZV,PERSONAS,MU-37A
529471,Fuentes de beber,012,EMBAJADORES,01,CENTRO,OPERATIVO,440371.53,4473002.75,ETRS89,40.40550361,-3.70272688,GLORIETA,EMBAJADORES,1,28012,glorieta embajadores farola 29 c/v calle embajadores,20004566,2022-06-21 00:00:00.0,FUE_01_0092,FUE25,VP,PERSONAS,FUENTE_ACCESIBLE
4940143,Fuentes de beber,174,LOS ROSALES,17,VILLAVERDE,OPERATIVO,441474.57,4467842.04,ETRS89,40.35909136,-3.68925435,AVENIDA,FELICIDAD,22,28041,"entre farola 16 y area infantil, en jardin de nuestros mayores",20061681,2018-10-08 00:00:00.0,FUE_17_0122,FUE25,ZV,PERSONAS,FUENTE_ACCESIBLE
4940161,Fuentes de beber,023,CHOPERA,02,ARGANZUELA,OPERATIVO,440567.02,4472108.5,ETRS89,40.39746174,-3.70033969,CALLE,AGUILON,15,28045,"frente farola 15, junto area infantil",11008805,2018-10-10 00:00:00.0,FUE_02_0054,FUE25,VP,PERSONAS,MU-37A
4940265,Fuentes de beber,088,EL GOLOSO,08,FUENCARRAL-EL PARDO,OPERATIVO,440856.49,4484389.54,ETRS89,40.50811519,-3.69807286,CALLE,MONASTERIO DE OSEIRA,3,28049,,31004449,,FUE_08_0159,FUE25,ZV,PERSONAS,OTRO
4963553,Fuentes de beber,031,PACIFICO,03,RETIRO,OPERATIVO,442417.19,4472721.2,ETRS89,40.40311126,-3.67859476,CALLE,LEON GIL DE PALACIO,1,28007,"c/v avda. ciudad de barcelona, junto farola 62",20108055,2018-10-19 00:00:00.0,FUE_03_0047,FUE25,VP,PERSONAS,FUENTE_ACCESIBLE
4993815,Fuentes de beber,024,LEGAZPI,02,ARGANZUELA,OPERATIVO,442305.610,4471626.110,ETRS89,40.39323836,-3.67981037,CALLE,EROS,6,28045,"proximo a c/ ariel, junto farola 9",31040720,2019-01-30 00:00:00.0,FUE_02_0055,FUE25,VP,PERSONAS,FUENTE_ACCESIBLE
4995323,Fuentes de beber,053,CIUDAD JARDIN,05,CHAMARTIN,OPERATIVO,442945.67,4477453.4,ETRS89,40.44577775,-3.67279182,CALLE,MARCENADO,8,28002,,11023855,2019-02-07 00:00:00.0,FUE_05_0077,FUE25,VP,PERSONAS,MU-37B
4995326,Fuentes de beber,143,MARROQUINA,14,MORATALAZ,OPERATIVO,444944.400,4473504.000,ETRS89,40.41033412,-3.64888198,CALLE,CORREGIDOR JOSE DE PASAMONTE,15,28030,junto farola 172 y parroquia nuestra señora de la montaña,11101525,2019-02-04 00:00:00.0,FUE_14_0101,FUE25,VP,PERSONAS,PIEDRA VP
4995334,Fuentes de beber,183,ENSANCHE DE VALLECAS,18,VILLA DE VALLECAS,OPERATIVO,450338.92,4467747.91,ETRS89,40.35881837,-3.58485713,CALLE,ARTE FIGURATIVO,30,28051,"c/v avda. cerro  milano, frente farola 42",31036777,2019-02-05 00:00:00.0,FUE_18_0056,FUE25,VP,PERSONAS,MU-37B
4998042,Fuentes de beber,166,VALDEFUENTES,16,HORTALEZA,OPERATIVO,448148.06,4482661.39,ETRS89,40.49303496,-3.61187373,PLAZA,FRANCISCO DE ASIS CABRERO,6,28055,,31042741,,FUE_16_0156,FUE25,ZV,PERSONAS,MU-37A
4998044,Fuentes de beber,166,VALDEFUENTES,16,HORTALEZA,OPERATIVO,448405.12,4482927.35,ETRS89,40.49544689,-3.60886214,AVENIDA,SECUNDINO ZUAZO,143,28055,pza. fernando garcía mercadal,31039717,,FUE_16_0158,FUE25,ZV,PERSONAS,MU-37A
5003379,Fuentes de beber,144,MEDIA LEGUA,14,MORATALAZ,FUERA_DE_SERVICIO,444327.3,4473416.91,ETRS89,40.40950852,-3.65614701,CALLE,ARROYO DE LA MEDIA LEGUA,46,28030,"posterior, en parque junto farolin 5 y area infantil",11101745,2019-02-15 00:00:00.0,FUE_14_0102,FUE25,ZV,PERSONAS,MU-37A
5005855,Fuentes de beber,172,SAN CRISTOBAL,17,VILLAVERDE,OPERATIVO,441343.98,4466000.96,ETRS89,40.34249663,-3.69062299,PLAZA,PINAZO,7,28021,"junto farola 119/120, frente parroquia ntra. sra. de los desamparados",11126201,2019-02-19 00:00:00.0,FUE_17_0123,FUE25,ZV,PERSONAS,FUENTE_ACCESIBLE
5008250,Fuentes de beber,107,AGUILAS,10,LATINA,OPERATIVO,434143.800,4469777.650,ETRS89,40.37598141,-3.77578169,CALLE,VALLE INCLAN,68 B,28044,"entre farolas 57 y 58, junto pista deportiva",31070341,2019-03-08 00:00:00.0,FUE_10_0112,FUE25,ZV,PERSONAS,CASTIZA
5024349,Fuentes de beber,013,CORTES,01,CENTRO,FUERA_DE_SERVICIO,440569.19,4474037.7,ETRS89,40.41484108,-3.70049427,PLAZA,PRINCIPE ALFONSO,5,28012,"plaza santa ana, área infantil",11003871,2019-03-03 00:00:00.0,FUE_01_0048,FUE25,ZV,PERSONAS,MU-37A
5024768,Fuentes de beber,025,DELICIAS,02,ARGANZUELA,OPERATIVO,442083.73,4471804.63,ETRS89,40.39483117,-3.68244083,CALLE,AMALTEA,6,28045,junto farolin 48 y area infantil,31054586,,FUE_02_0056,FUE25,ZV,PERSONAS,MU-37A
5024813,Fuentes de beber,142,HORCAJO,14,MORATALAZ,OPERATIVO,446622.96,4472779.6,ETRS89,40.40391761,-3.62903896,CALLE,LUIS DE HOYOS SAINZ,162 B,28030,"junto farola 37 y area infantil, en acera parque vandel",31003525,2019-03-04 00:00:00.0,FUE_14_0103,FUE25,ZV,PERSONAS,CASTIZA
5034852,Fuentes de beber,014,JUSTICIA,01,CENTRO,OPERATIVO,441255.76,4474770.46,ETRS89,40.42149088,-3.69247011,PASEO,RECOLETOS,17,28004,en bulevar junto aseos públicos,11004254,2019-03-07 00:00:00.0,FUE_01_0049,FUE25,ZV,PERSONAS,MU-37A
5034921,Fuentes de beber,213,CASCO HISTORICO DE BARAJAS,21,BARAJAS,OPERATIVO,450861.545,4480800.625,ETRS89,40.47643719,-3.57971088,CALLE,ORION,2,28042,junto a zona estancial,31069091,2025-03-07 00:00:00.0,FUE_21_0081,FUE25,ZV,PERSONAS,EGEA
5036311,Fuentes de beber,016,SOL,01,CENTRO,OPERATIVO,440338.32,4474513.31,ETRS89,40.41910908,-3.70325989,CALLE,TRES CRUCES,1,28013,c/v pza. del carmen,20006576,2019-03-20 00:00:00.0,FUE_01_0051,FUE25,ZV,PERSONAS,FUENTE_ACCESIBLE
5036554,Fuentes de beber,014,JUSTICIA,01,CENTRO,OPERATIVO,440894.84,4474833.97,ETRS89,40.42203745,-3.69673019,CALLE,AUGUSTO FIGUEROA,41,28004,c/v válgame dios,20005604,2019-03-12 00:00:00.0,FUE_01_0052,FUE25,VP,PERSONAS,MU-37A
5036621,Fuentes de beber,015,UNIVERSIDAD,01,CENTRO,OPERATIVO,439731.8,4475414.52,ETRS89,40.42718388,-3.71049412,PLAZA,GUARDIAS DE CORPS,4,28015,c/v conde duque,31037140,2019-03-22 00:00:00.0,FUE_01_0053,FUE25,ZV,PERSONAS,MU-37A
5069019,Fuentes de beber,022,ACACIAS,02,ARGANZUELA,OPERATIVO,439501.780,4472480.580,ETRS89,40.40073691,-3.71292659,PASEO,YESERIAS,1,28005,"proximo a farola 3, junto area infantil en parque fronton piramides",11008353,2019-04-05 00:00:00.0,FUE_02_0058,FUE25,ZV,PERSONAS,MU-37A
5069765,Fuentes de beber,211,ALAMEDA DE OSUNA,21,BARAJAS,OPERATIVO,449827.33,4479028.15,ETRS89,40.46040785,-3.59177125,CALLE,MANUEL AGUILAR MUÑOZ,1,28042,"'fte colegio, junto parada de autobus",11139813,2019-04-23 00:00:00.0,FUE_21_0056,FUE25,ZV,PERSONAS,CASTIZA
5069859,Fuentes de beber,211,ALAMEDA DE OSUNA,21,BARAJAS,OPERATIVO,449941.49,4478519.42,ETRS89,40.45583179,-3.59038472,CALLE,CARABELA,21,28042,c/v c/ rioja,11139688,2019-04-09 00:00:00.0,FUE_21_0055,FUE25,ZV,PERSONAS,FUENTE_ACCESIBLE
5074494,Fuentes de beber,056,CASTILLA,05,CHAMARTIN,OPERATIVO,441760.91,4479959.29,ETRS89,40.46826976,-3.68699162,CALLE,AGUSTIN DE FOXA,12,28036,cv c/enrique larreta,20047722,2019-04-15 00:00:00.0,FUE_05_0078,FUE25,ZV,PERSONAS,MU-37A
5074608,Fuentes de beber,054,HISPANOAMERICA,05,CHAMARTIN,OPERATIVO,443081.03,4478449.06,ETRS89,40.45475641,-3.67128499,CALLE,VICTOR DE LA SERNA,26,28016,cv c/pintor ribera,11025051,2019-04-16 00:00:00.0,FUE_05_0079,FUE25,ZV,PERSONAS,MU-37A
5106617,Fuentes de beber,215,CORRALEJOS,21,BARAJAS,OPERATIVO,449870.28,4479510.83,ETRS89,40.46475871,-3.59130282,CALLE,BANDE,31,28042,zv c/v bahía de santoña,20160536,2019-05-24 00:00:00.0,FUE_21_0057,FUE25,ZV,PERSONAS,CASTIZA
5106864,Fuentes de beber,214,TIMON,21,BARAJAS,OPERATIVO,449966.77,4480134.59,ETRS89,40.47038373,-3.59021392,GLORIETA,PLAYA DE SAN LORENZO,4,28042,junto entrada colegio margaret thatcher,31050691,2019-05-27 00:00:00.0,FUE_21_0059,FUE25,VP,PERSONAS,CASTIZA
5108929,Fuentes de beber,012,EMBAJADORES,01,CENTRO,OPERATIVO,440133.39,4473044.21,ETRS89,40.40586001,-3.70553708,RONDA,TOLEDO,9,28005,parque casino de la reina. recinto cerrado/vallado,20150618,2019-05-24 00:00:00.0,FUE_01_0063,FUE25,ZV,PERSONAS_Y_MASCOTAS,MIXTA NEPTUNO
5109125,Fuentes de beber,012,EMBAJADORES,01,CENTRO,OPERATIVO,440116.53,4473053.82,ETRS89,40.40594537,-3.70573667,RONDA,TOLEDO,7,28005,parque casino de la reina. recinto cerrado/vallado,11001954,2019-05-24 00:00:00.0,FUE_01_0064,FUE25,ZV,PERSONAS_Y_MASCOTAS,MIXTA NEPTUNO
5110283,Fuentes de beber,014,JUSTICIA,01,CENTRO,OPERATIVO,440864.72,4475031.35,ETRS89,40.4238134,-3.69710358,CALLE,SAN LUCAS,1,28004,c/v san gregorio,31037827,,FUE_01_0062,FUE25,ZV,PERSONAS,MU-37A
5110430,Fuentes de beber,013,CORTES,01,CENTRO,OPERATIVO,441051.2,4474485.1,ETRS89,40.41890576,-3.69485482,CALLE,ALCALA,48,28014,puerta banco de españa,11004016,2019-06-06 00:00:00.0,FUE_01_0060,FUE25,VP,PERSONAS,FUENTE_ACCESIBLE
5124718,Fuentes de beber,086,VALVERDE,08,FUENCARRAL-EL PARDO,OPERATIVO,441316.16,4482984.29,ETRS89,40.49548884,-3.69251754,CALLE,BRAILLE,7,28034,parque fuente chica,11048492,2019-06-11 00:00:00.0,FUE_08_0163,FUE25,ZV,PERSONAS,CASTIZA
5125679,Fuentes de beber,012,EMBAJADORES,01,CENTRO,OPERATIVO,440295.29,4473761.7,ETRS89,40.41233514,-3.70369652,PLAZA,TIRSO DE MOLINA,2,28012,junto área infantil,11001662,2019-06-06 00:00:00.0,FUE_01_0057,FUE25,ZV,PERSONAS,MU-37A
5125682,Fuentes de beber,014,JUSTICIA,01,CENTRO,OPERATIVO,441185.92,4474584.23,ETRS89,40.4198083,-3.69327609,PASEO,RECOLETOS,1,28004,c/v pza. cibeles en bulevar junto paradas de autobús,20005400,2019-06-07 00:00:00.0,FUE_01_0056,FUE25,ZV,PERSONAS,MU-37A
5154582,Fuentes de beber,086,VALVERDE,08,FUENCARRAL-EL PARDO,OPERATIVO,443254.44,4484389.53,ETRS89,40.5082826,-3.66977165,CALLE,CAMINO DE SANTIAGO,50,28050,c/v av. santo domingo de la calzada (metro ligero),31026259,2019-06-24 00:00:00.0,FUE_08_0166,FUE25,VP,PERSONAS,CASTIZA
5176229,Fuentes de beber,134,PALOMERAS SURESTE,13,PUENTE DE VALLECAS,OPERATIVO,445919.240,4470134.890,ETRS89,40.38004697,-3.63710711,CALLE,MAQUINILLA,13,28031,"jardin entre c/ maquinilla y c/ yesero, junto areas infantiles",31015182,2019-07-09 00:00:00.0,FUE_13_0156,FUE25,ZV,PERSONAS,CASTIZA
5176256,Fuentes de beber,136,NUMANCIA,13,PUENTE DE VALLECAS,FUERA_DE_SERVICIO,443954.28,4472316.69,ETRS89,40.39957208,-3.66044619,CALLE,ALTO DEL LEON,2,28038,"frente nº 1  c/ sierra toledana, en parque",11099369,2019-07-12 00:00:00.0,FUE_13_0157,FUE25,ZV,PERSONAS,CASTIZA
5176269,Fuentes de beber,135,PORTAZGO,13,PUENTE DE VALLECAS,OPERATIVO,444973.85,4470869.78,ETRS89,40.38660543,-3.64830723,CALLE,PEDRO LABORDE,31,28018,"junto farolin 10, en plaza de la constitución",11097998,2019-07-12 00:00:00.0,FUE_13_0158,FUE25,ZV,PERSONAS,CASTIZA
5176279,Fuentes de beber,115,PUERTA BONITA,11,CARABANCHEL,OPERATIVO,437115.4,4469834.76,ETRS89,40.3767254,-3.74078491,CALLE,NUESTRA SEÑORA DE LA ANTIGUA,52 C,28025,"frente nº 52 y farola 12, entre area infantil y cancha de baloncesto",31052352,2019-07-19 00:00:00.0,FUE_11_0132,FUE25,ZV,PERSONAS,CASTIZA
5176281,Fuentes de beber,114,VISTA ALEGRE,11,CARABANCHEL,OPERATIVO,437209.280,4470762.830,ETRS89,40.38509295,-3.73977054,PASEO,MARCELINO CAMACHO,6,28025,"entre farola 4 y fuente ornamental, en parque marcelino camacho",20022926,2019-07-19 00:00:00.0,FUE_11_0133,FUE25,ZV,PERSONAS,CASTIZA
5176423,Fuentes de beber,011,PALACIO,01,CENTRO,OPERATIVO,439695.29,4474251.51,ETRS89,40.41670432,-3.71081421,PLAZA,SANTIAGO,4,28013,c/v santa clara,11000328,2019-07-26 00:00:00.0,FUE_01_0084,FUE25,VP,PERSONAS,MU-37A
5176425,Fuentes de beber,011,PALACIO,01,CENTRO,OPERATIVO,439881.49,4474004.73,ETRS89,40.41449468,-3.7085963,PLAZA,CONDE DE BARAJAS,6,28005,,11000528,2019-07-22 00:00:00.0,FUE_01_0065,FUE25,VP,PERSONAS,PIEDRA VP
5176426,Fuentes de beber,011,PALACIO,01,CENTRO,OPERATIVO,439587.39,4473309.42,ETRS89,40.40820971,-3.71199648,PLAZA,VIRGEN DE LA PALOMA,1,28005,c/v calle la paloma 21,20105760,2019-07-15 00:00:00.0,FUE_01_0066,FUE25,ZV,PERSONAS,MU-37A
5176428,Fuentes de beber,015,UNIVERSIDAD,01,CENTRO,OPERATIVO,439491.54,4475691.51,ETRS89,40.42966168,-3.71335267,CALLE,SANTA CRUZ DE MARCENADO,31,28015,,11006509,2019-07-29 00:00:00.0,FUE_01_0067,FUE25,VP,PERSONAS,MU-37A
5176474,Fuentes de beber,014,JUSTICIA,01,CENTRO,OPERATIVO,440912.85,4475331.47,ETRS89,40.42652045,-3.69656414,PLAZA,SANTA BARBARA,10,28004,,11005150,2019-07-11 00:00:00.0,FUE_01_0069,FUE25,ZV,PERSONAS,MU-37A
5176476,Fuentes de beber,011,PALACIO,01,CENTRO,OPERATIVO,439795.530,4474038.000,ETRS89,40.41478818,-3.70961255,PLAZA,CONDE DE MIRANDA,2,28005,,11000533,2019-07-19 00:00:00.0,FUE_01_0070,FUE25,ZV,PERSONAS,MU-37A
5176481,Fuentes de beber,183,ENSANCHE DE VALLECAS,18,VILLA DE VALLECAS,OPERATIVO,448271.280,4469511.980,ETRS89,40.37458469,-3.60934949,AVENIDA,LA GAVIA,13,28051,"entre farolas 20 y 22, proximo a area infantil y fuente ornamental en parque",31037292,2019-07-29 00:00:00.0,FUE_18_0060,FUE25,ZV,PERSONAS,CASTIZA
5176483,Fuentes de beber,183,ENSANCHE DE VALLECAS,18,VILLA DE VALLECAS,OPERATIVO,447653.97,4468845.78,ETRS89,40.36854455,-3.61656613,AVENIDA,LA GAVIA,66,28051,"frente farola 63, entre area infantil y pista de skate, en parque  mundaire",31045482,2019-07-29 00:00:00.0,FUE_18_0062,FUE25,ZV,PERSONAS,CASTIZA
5176484,Fuentes de beber,183,ENSANCHE DE VALLECAS,18,VILLA DE VALLECAS,OPERATIVO,446811.800,4469078.930,ETRS89,40.37059162,-3.62650465,AVENIDA,Mayorazgo,1,28051,"entre farolas 51 y 53, proximo a area infantil en parque del mayorazgo",31063841,2019-07-25 00:00:00.0,FUE_18_0063,FUE25,ZV,PERSONAS,CASTIZA
5181104,Fuentes de beber,093,CIUDAD UNIVERSITARIA,09,MONCLOA-ARAVACA,OPERATIVO,439107.95,4476774.33,ETRS89,40.43938819,-3.71797834,PLAZA,CRISTO REY,6,28040,,31011241,2019-08-16 00:00:00.0,FUE_09_0124,FUE25,VP,PERSONAS,MU-37A
5181105,Fuentes de beber,091,CASA DE CAMPO,09,MONCLOA-ARAVACA,OPERATIVO,438951.98,4474927.95,ETRS89,40.42274379,-3.71963992,PASEO,REY,26,28008,c/v paseo de la rosaleda,11052179,2019-08-21 00:00:00.0,FUE_09_0125,FUE25,VP,PERSONAS,MU-37A
529472,Fuentes de beber,064,ALMENARA,06,TETUAN,OPERATIVO,441014.52,4480557.28,ETRS89,40.47360403,-3.69585107,CALLE,VIA LIMITE,10,28029,"parque de la ventilla, junto zona infantil",31045422,,FUE_06_0011,FUE25,ZV,PERSONAS,MU-37A
529473,Fuentes de beber,062,CUATRO CAMINOS,06,TETUAN,OPERATIVO,440360.569,4477998.75,ETRS89,40.45050907,-3.70332474,CALLE,BRAVO MURILLO,144,28020,cv calle jaén,20011110,,FUE_06_0075,FUE25,VP,PERSONAS,BRAVO MURILLO
529476,Fuentes de beber,063,CASTILLEJOS,06,TETUAN,OPERATIVO,440916.124,4479002.36,ETRS89,40.45958969,-3.69686697,CALLE,INFANTA MERCEDES,59,28020,,11030461,,FUE_06_0078,FUE25,VP,PERSONAS,PIEDRA VP
529477,Fuentes de beber,065,VALDEACEDERAS,06,TETUAN,OPERATIVO,440799.257,4479627.88,ETRS89,40.46521631,-3.69830361,CALLE,MULLER,36,28039,cv calle capitán blanco argibay,11033971,,FUE_06_0079,FUE25,VP,PERSONAS,PIEDRA VP
529479,Fuentes de beber,062,CUATRO CAMINOS,06,TETUAN,OPERATIVO,441217.42,4477902.61,ETRS89,40.44970403,-3.69321175,PLAZA,PABLO RUÍZ PICASSO,13,28020,junto a fuente ornamental,31069041,,FUE_06_0081,FUE25,ZV,PERSONAS,CARMEL
529484,Fuentes de beber,075,RIOS ROSAS,07,CHAMBERI,OPERATIVO,441359.988,4476763.37,ETRS89,40.43945131,-3.69142541,PASEO,CASTELLANA,59,28046,bulevar paseo de la castellana,20066506,,FUE_07_0013,FUE25,ZV,PERSONAS,MU-37D
529485,Fuentes de beber,074,ALMAGRO,07,CHAMBERI,OPERATIVO,441451.934,4476495.88,ETRS89,40.43704812,-3.6903167,PASEO,CASTELLANA,51,28046,bulevar paseo de la castellana,11041548,,FUE_07_0011,FUE25,ZV,PERSONAS,MU-37D
529487,Fuentes de beber,092,ARGÜELLES,09,MONCLOA-ARAVACA,OPERATIVO,438916.276,4475639.584,ETRS89,40.42915187,-3.72012914,CALLE,MARQUES DE URQUIJO,39,28008,cv calle ferraz,11052653,,FUE_09_0050,FUE25,VP,PERSONAS,MU-37A
529490,Fuentes de beber,076,VALLEHERMOSO,07,CHAMBERI,OPERATIVO,440250.553,4476717.22,ETRS89,40.4389566,-3.70450151,CALLE,BRAVO MURILLO,49 A,28003,parque enrique herreros a la entrada. recinto cerrado/vallado,31044176,,FUE_07_0016,FUE25,ZV,PERSONAS,MIXTA ESTELA
529491,Fuentes de beber,024,LEGAZPI,02,ARGANZUELA,OPERATIVO,441652.73,4471307.87,ETRS89,40.39032601,-3.68747355,CALLE,BRONCE,5,28045,junto rampa y area deportiva,31007293,,FUE_02_0005,FUE25,ZV,PERSONAS,MU-37A
529492,Fuentes de beber,022,ACACIAS,02,ARGANZUELA,OPERATIVO,440179.270,4472101.990,ETRS89,40.39737533,-3.70490787,PASEO,YESERIAS,57,28005,"parte posterior, en paseo peatonal con c/ valdelasierra",11008381,,FUE_02_0028,FUE25,ZV,PERSONAS,MU-37A
529498,Fuentes de beber,024,LEGAZPI,02,ARGANZUELA,OPERATIVO,441417.38,4471208.77,ETRS89,40.38941674,-3.69023724,CALLE,SODIO,1 G,28045,"en parque c/v c/ hierro, junto farola 7",31014990,,FUE_02_0029,FUE25,ZV,PERSONAS,MU-37A
529500,Fuentes de beber,024,LEGAZPI,02,ARGANZUELA,OPERATIVO,441891.03,4471698.46,ETRS89,40.39386131,-3.68470162,CALLE,NEBULOSAS,2 W,28045,"parque enrique tierno galvan, junto farola 538",31070812,,FUE_02_0035,FUE25,ZV,PERSONAS,MU-37A
529501,Fuentes de beber,026,PALOS DE LA FRONTERA,02,ARGANZUELA,OPERATIVO,441052.23,4472694.44,ETRS89,40.40277467,-3.69467678,CALLE,PALOS DE LA FRONTERA,42 B,28045,en parque c/v pº delicias,20173190,,FUE_02_0012,FUE25,ZV,PERSONAS,METROPOLIS
529503,Fuentes de beber,092,ARGÜELLES,09,MONCLOA-ARAVACA,OPERATIVO,439163.217,4475932.51,ETRS89,40.43180877,-3.71724615,CALLE,PRINCESA,71,28008,cv calle de altamirano,11052875,,FUE_09_0054,FUE25,VP,PERSONAS,PIEDRA VP
529504,Fuentes de beber,076,VALLEHERMOSO,07,CHAMBERI,OPERATIVO,439233.042,4477010.060,ETRS89,40.44152089,-3.71652604,CALLE,DOMENICO SCARLATTI,4,28003,domenico scarlatti,20145920,,FUE_07_0002,FUE25,ZV,PERSONAS,MU-37A
5188209,Fuentes de beber,091,CASA DE CAMPO,09,MONCLOA-ARAVACA,OPERATIVO,438671.01,4475217.8,ETRS89,40.42533422,-3.72297972,PASEO,REY,34,28008,,11052117,2019-08-30 00:00:00.0,FUE_09_0126,FUE25,VP,PERSONAS,MU-37A
5188221,Fuentes de beber,097,ARAVACA,09,MONCLOA-ARAVACA,OPERATIVO,433129.48,4477469.41,ETRS89,40.44519038,-3.78853761,AVENIDA,EUROPA,36,28023,,20059088,2019-09-04 00:00:00.0,FUE_09_0131,FUE25,ZV,PERSONAS,MU-37A
5191205,Fuentes de beber,031,PACIFICO,03,RETIRO,OPERATIVO,442463.890,4473180.960,ETRS89,40.40725625,-3.67808601,AVENIDA,MEDITERRANEO,2,28007,"entre farola 2 y 4, junto quiosco en plaza mariano de cavia",11010851,2019-09-10 00:00:00.0,FUE_03_0050,FUE25,ZV,PERSONAS,MU-37A
5192389,Fuentes de beber,206,REJAS,20,SAN BLAS-CANILLEJAS,OPERATIVO,451772.970,4477302.240,ETRS89,40.44497493,-3.56869302,AVENIDA,FERMINA SEVILLANO,21 B,28022,"en bulevar central, junto glorieta",31046744,2019-09-30 00:00:00.0,FUE_20_0114,FUE25,VP,PERSONAS,MU-37A
5192403,Fuentes de beber,203,AMPOSTA,20,SAN BLAS-CANILLEJAS,OPERATIVO,447279.31,4475486.15,ETRS89,40.42834171,-3.62152875,CALLE,ALBERIQUE,10 G,28037,"en bulevar, entre farolas 30 y 32 y areas infantiles",31046947,2019-09-20 00:00:00.0,FUE_20_0115,FUE25,ZV,PERSONAS,CASTIZA
5195509,Fuentes de beber,073,TRAFALGAR,07,CHAMBERI,OPERATIVO,440154.420,4475720.520,ETRS89,40.42997097,-3.70554107,GLORIETA,RUIZ JIMENEZ,4,28015,c/v san bernardo,11039833,,FUE_07_0024,FUE25,VP,PERSONAS,MU-37A
5196347,Fuentes de beber,076,VALLEHERMOSO,07,CHAMBERI,OPERATIVO,440295.73,4477559.89,ETRS89,40.44655098,-3.70404807,GLORIETA,CUATRO CAMINOS,1,28020,c/v bravo murillo,11042383,2019-10-04 00:00:00.0,FUE_07_0029,FUE25,VP,PERSONAS,MU-37A
5202129,Fuentes de beber,013,CORTES,01,CENTRO,OPERATIVO,440722.03,4473750.16,ETRS89,40.41226168,-3.69866613,CALLE,ATOCHA,73,28012,c/v amor de dios,20005144,2019-10-15 00:00:00.0,FUE_01_0071,FUE25,VP,PERSONAS,MU-37A
5202135,Fuentes de beber,012,EMBAJADORES,01,CENTRO,OPERATIVO,440767.0,4473568.56,ETRS89,40.41062894,-3.69811923,CALLE,SANTA ISABEL,34,28012,c/v buenavista,11002906,2019-10-15 00:00:00.0,FUE_01_0072,FUE25,VP,PERSONAS,MU-37A
5202144,Fuentes de beber,012,EMBAJADORES,01,CENTRO,OPERATIVO,441169.800,4473328.310,ETRS89,40.40849321,-3.69334995,CALLE,DOCTOR DRUMEN,7,28012,c/v plaza juan goytisolo,20004914,2019-10-15 00:00:00.0,FUE_01_0074,FUE25,ZV,PERSONAS,MU-37A
5205476,Fuentes de beber,012,EMBAJADORES,01,CENTRO,OPERATIVO,440360.55,4473284.54,ETRS89,40.40804133,-3.70288268,PLAZA,LA CORRALA,1,28012,"calle meson de paredes, 63",31025779,2019-10-15 00:00:00.0,FUE_01_0075,FUE25,ZV,PERSONAS,MU-37A
5205481,Fuentes de beber,014,JUSTICIA,01,CENTRO,OPERATIVO,440972.65,4474618.41,ETRS89,40.42010111,-3.69579303,PLAZA,REY,1 B,28004,calle barquillo frente al nº 6,31037790,,FUE_01_0080,FUE25,ZV,PERSONAS,FUENTE_ACCESIBLE
5205482,Fuentes de beber,151,VENTAS,15,CIUDAD LINEAL,OPERATIVO,444458.84,4474733.37,ETRS89,40.42137673,-3.65471175,CALLE,POETA BLAS DE OTERO,11,28017,posterior,11103555,2019-10-15 00:00:00.0,FUE_15_0125,FUE25,ZV,PERSONAS,CASTIZA
5205488,Fuentes de beber,159,COSTILLARES,15,CIUDAD LINEAL,OPERATIVO,442993.45,4480691.56,ETRS89,40.47495187,-3.67251927,CALLE,SERRANO GALVACHE,40,28033,frente al 40,20140985,2019-10-31 00:00:00.0,FUE_15_0130,FUE25,ZV,PERSONAS,CASTIZA
5205489,Fuentes de beber,155,SAN PASCUAL,15,CIUDAD LINEAL,OPERATIVO,445004.28,4477129.4,ETRS89,40.44299771,-3.64848989,CALLE,JUAN PEREZ ZUÑIGA,31,28027,frente al nº 22,11111027,,FUE_15_0131,FUE25,ZV,PERSONAS,CASTIZA
5209649,Fuentes de beber,042,GOYA,04,SALAMANCA,OPERATIVO,443161.45,4475317.82,ETRS89,40.42655415,-3.67005647,CALLE,TOMAS LOPEZ,7,28009,"frente portal 7, junto farola 5, proximo a area infantil",31014877,,FUE_04_0043,FUE25,ZV,PERSONAS,MU-37A
5209650,Fuentes de beber,043,FUENTE DEL BERRO,04,SALAMANCA,OPERATIVO,443326.83,4475469.86,ETRS89,40.42793508,-3.66812052,PLAZA,MANUEL BECERRA,15 B,28028,"c/v c/ doctor esquerdo, junto farola 56",11016814,,FUE_04_0044,FUE25,VP,PERSONAS,MU-37A
5209652,Fuentes de beber,045,LISTA,04,SALAMANCA,OPERATIVO,442631.73,4476392.7,ETRS89,40.43620084,-3.67639782,CALLE,FRANCISCO SILVELA,73,28028,proximo a c/ general oraa y farola 93,11018901,,FUE_04_0047,FUE25,VP,PERSONAS,MU-37A
5211482,Fuentes de beber,166,VALDEFUENTES,16,HORTALEZA,OPERATIVO,445238.749,4482058.598,ETRS89,40.48741788,-3.64615067,AVENIDA,NICETO ALCALA ZAMORA,33,28050,frente al nº 33. parque infantil en la mediana.,31010098,2019-11-15 00:00:00.0,FUE_16_0160,FUE25,ZV,PERSONAS,CASTIZA
5211484,Fuentes de beber,164,PINAR DEL REY,16,HORTALEZA,OPERATIVO,445981.48,4480508.67,ETRS89,40.47350402,-3.63725535,CALLE,MANIZALES,15,28033,cv c/ aracataca. pistas deportivas,31050824,2019-11-14 00:00:00.0,FUE_16_0162,FUE25,ZV,PERSONAS,CASTIZA
5211485,Fuentes de beber,164,PINAR DEL REY,16,HORTALEZA,OPERATIVO,445138.43,4480317.58,ETRS89,40.47172733,-3.64718367,CALLE,VALDETORRES DE JARAMA,2,28043,,11118515,2019-11-18 00:00:00.0,FUE_16_0163,FUE25,ZV,PERSONAS,CASTIZA
5211506,Fuentes de beber,165,APOSTOL SANTIAGO,16,HORTALEZA,OPERATIVO,444103.47,4480928.15,ETRS89,40.47715863,-3.6594458,CALLE,SOMONTIN,96,28033,junto área infantil,11121778,2019-11-18 00:00:00.0,FUE_16_0164,FUE25,ZV,PERSONAS,CASTIZA
5211515,Fuentes de beber,162,PIOVERA,16,HORTALEZA,OPERATIVO,444812.69,4478493.43,ETRS89,40.45527291,-3.65086744,CALLE,ANGEL CAVERO,1,28043,c/v c/ puerto de santa maría,11114818,2019-11-25 00:00:00.0,FUE_16_0165,FUE25,ZV,PERSONAS,CASTIZA
5212100,Fuentes de beber,062,CUATRO CAMINOS,06,TETUAN,OPERATIVO,440334.18,4477638.93,ETRS89,40.44726576,-3.70360211,GLORIETA,CUATRO CAMINOS,7,28020,c/v calle de los artistas,31023336,2019-11-25 00:00:00.0,FUE_06_0084,FUE25,VP,PERSONAS,MU-37A
5212747,Fuentes de beber,061,BELLAS VISTAS,06,TETUAN,OPERATIVO,440100.63,4478114.02,ETRS89,40.45152877,-3.70640084,CALLE,TENERIFE,29,28039,frente al nº 42,11027994,2019-11-29 00:00:00.0,FUE_06_0085,FUE25,ZV,PERSONAS,MU-37A
5212748,Fuentes de beber,064,ALMENARA,06,TETUAN,OPERATIVO,441501.69,4480518.87,ETRS89,40.47329247,-3.69010078,CALLE,LUIS ESTEBAN,27,28029,c/v magnolias,11032079,2019-11-29 00:00:00.0,FUE_06_0086,FUE25,ZV,PERSONAS,CASTIZA
5214770,Fuentes de beber,171,VILLAVERDE ALTO - CASCO HISTORICO DE VILLAVERDE,17,VILLAVERDE,OPERATIVO,439179.69,4466610.17,ETRS89,40.34782978,-3.71616179,PASEO,FERROVIARIOS,2,28021,"entre farolas 16 y 18, junto area infantil en parque de plata y castañar",31054963,,FUE_17_0124,FUE25,ZV,PERSONAS,MU-P37C
529507,Fuentes de beber,021,IMPERIAL,02,ARGANZUELA,OPERATIVO,438746.66,4472892.77,ETRS89,40.4043949,-3.72186411,CALLE,SAN ALEJANDRO,12,28005,"frente farola 5, en parque proximo a area infantil",20007244,,FUE_02_0021,FUE25,ZV,PERSONAS,MU-37A
529509,Fuentes de beber,022,ACACIAS,02,ARGANZUELA,OPERATIVO,439901.88,4472690.68,ETRS89,40.40265856,-3.70823188,CALLE,NOGALES,5,28005,en pº central parque de las mesitas,31011506,,FUE_02_0022,FUE25,ZV,PERSONAS,MU-37A
529510,Fuentes de beber,033,ESTRELLA,03,RETIRO,OPERATIVO,443885.31,4474124.77,ETRS89,40.41585564,-3.66141832,CALLE,JUAN ESPLANDIU,4 B,28007,"entre area infantil y pistas deportivas, en parque roma",31020467,,FUE_03_0002,FUE25,ZV,PERSONAS,MU-37A
529511,Fuentes de beber,024,LEGAZPI,02,ARGANZUELA,OPERATIVO,442128.3,4471301.86,ETRS89,40.39030504,-3.68187,CALLE,MENESES,6,28045,"parque enrique tierno galvan, en mirador norte",31045271,,FUE_02_0037,FUE25,ZV,PERSONAS,MU-37A
529517,Fuentes de beber,024,LEGAZPI,02,ARGANZUELA,FUERA_DE_SERVICIO,442166.28,4471171.48,ETRS89,40.38913314,-3.68141069,CALLE,TITAN,15,28045,"parque enrique tierno galvan, proximo a zona de calistenia",31011890,,FUE_02_0033,FUE25,ZV,PERSONAS,MU-37A
529519,Fuentes de beber,024,LEGAZPI,02,ARGANZUELA,OPERATIVO,442125.47,4471670.41,ETRS89,40.39362495,-3.68193683,AVENIDA,PLANETARIO,7,28045,"c/v c/ meneses, junto pista de patinaje en plaza del panetario",20141792,,FUE_02_0052,FUE25,ZV,PERSONAS,MU-37C
529520,Fuentes de beber,023,CHOPERA,02,ARGANZUELA,OPERATIVO,440749.640,4472152.480,ETRS89,40.39787094,-3.698192,CALLE,JAIME EL CONQUISTADOR,10,28045,"c/v c/ torres de miranda, junto farola 6 y area infantil",31016232,,FUE_02_0045,FUE25,ZV,PERSONAS,MU-37A
529522,Fuentes de beber,021,IMPERIAL,02,ARGANZUELA,OPERATIVO,439064.74,4472939.93,ETRS89,40.40484308,-3.71812037,PASEO,PONTONES,20 B,28005,"en parque imperial pvf, acceso por c/ cobos de segovia",20108104,,FUE_02_0024,FUE25,ZV,PERSONAS,MU-37A
529523,Fuentes de beber,074,ALMAGRO,07,CHAMBERI,OPERATIVO,441522.465,4475701.1,ETRS89,40.42989333,-3.68941203,PASEO,CASTELLANA,25,28046,bulevar paseo de la castellana,11040935,,FUE_07_0008,FUE25,ZV,PERSONAS,MU-37D
529524,Fuentes de beber,024,LEGAZPI,02,ARGANZUELA,OPERATIVO,441726.29,4471118.3,ETRS89,40.38862341,-3.68658954,CALLE,PUERTO DE BEJAR,24,28045,junto a pista deportiva,20000340,,FUE_02_0003,FUE25,ZV,PERSONAS,MU-37A
5216568,Fuentes de beber,065,VALDEACEDERAS,06,TETUAN,OPERATIVO,439725.044,4480019.064,ETRS89,40.468663,-3.71101076,CALLE,CAPITAN BLANCO ARGIBAY,3,28029,"parque agustín rodriguez shagún, area canina junto aparcamiento",11033851,2019-12-16 00:00:00.0,FUE_06_0092,FUE25,ZV,PERSONAS,MIXTA NEPTUNO
5219893,Fuentes de beber,072,ARAPILES,07,CHAMBERI,OPERATIVO,439682.14,4476117.22,ETRS89,40.43351051,-3.71114619,CALLE,GALILEO,35,28015,parque josé luis sampedro. recinto cerrado/vallado,31044128,2019-12-26 00:00:00.0,FUE_07_0031,FUE25,ZV,PERSONAS,METROPOLIS
5220270,Fuentes de beber,127,PRADOLONGO,12,USERA,OPERATIVO,439581.46,4469662.28,ETRS89,40.37535404,-3.71172038,AVENIDA,RAFAELA YBARRA,85,28026,"frente glorieta, junto circuito de bici de parque pradolongo",20153855,2020-01-10 00:00:00.0,FUE_12_0074,FUE25,ZV,PERSONAS,MU-37A
5220279,Fuentes de beber,127,PRADOLONGO,12,USERA,OPERATIVO,439997.25,4469774.06,ETRS89,40.37639105,-3.70683332,CALLE,CRISTO DE LA VICTORIA,225,28026,"zona noreste de templete de praolongo, proximo a area infantil",11085930,2020-01-10 00:00:00.0,FUE_12_0076,FUE25,ZV,PERSONAS,MU-37A
5220281,Fuentes de beber,127,PRADOLONGO,12,USERA,OPERATIVO,440148.007,4469911.526,ETRS89,40.37764026,-3.70507043,CALLE,CRISTO DE LA VICTORIA,199,28026,"zona norte jardin botánico, en parque de pradolongo",11085922,2023-06-26 00:00:00.0,FUE_12_0077,FUE25,ZV,PERSONAS_Y_MASCOTAS,MIXTA ESTELA
5229175,Fuentes de beber,134,PALOMERAS SURESTE,13,PUENTE DE VALLECAS,FUERA_DE_SERVICIO,445250.86,4470509.04,ETRS89,40.38337391,-3.64501275,AVENIDA,RAFAEL ALBERTI,51,28018,parque del campo de la paloma plaza central,11096233,2020-01-16 00:00:00.0,FUE_13_0160,FUE25,ZV,PERSONAS,MU-37A
5229238,Fuentes de beber,134,PALOMERAS SURESTE,13,PUENTE DE VALLECAS,FUERA_DE_SERVICIO,445228.64,4470595.82,ETRS89,40.38415422,-3.64528197,CALLE,CAMPO DE LA PALOMA,22,28018,"frente farola 9, proximo a area infantil en parque campo de la paloma",11096275,2020-01-16 00:00:00.0,FUE_13_0161,FUE25,ZV,PERSONAS,MU-37A
5229300,Fuentes de beber,134,PALOMERAS SURESTE,13,PUENTE DE VALLECAS,FUERA_DE_SERVICIO,445253.99,4470644.96,ETRS89,40.38459857,-3.64498756,CALLE,GERARDO DIEGO,15,28018,"entre flas. 6 y 8 c/ los extremeños, frente c/ gerardo diego, en parque  la paloma",20035240,2020-01-16 00:00:00.0,FUE_13_0162,FUE25,ZV,PERSONAS,MU-37A
5232822,Fuentes de beber,173,BUTARQUE,17,VILLAVERDE,OPERATIVO,442419.13,4467154.32,ETRS89,40.35296171,-3.67806894,AVENIDA,LOS ROSALES,123,28021,"entre pista deportiva y area infantil, en parque",31000336,2020-01-21 00:00:00.0,FUE_17_0128,FUE25,ZV,PERSONAS,MU-37A
5237487,Fuentes de beber,211,ALAMEDA DE OSUNA,21,BARAJAS,OPERATIVO,450317.193,4479417.842,ETRS89,40.46394787,-3.58602426,AVENIDA,LOGROÑO,74,28042,'apr 21.03,11139811,,FUE_21_0061,FUE25,ZV,PERSONAS,MU-37A
529527,Fuentes de beber,074,ALMAGRO,07,CHAMBERI,OPERATIVO,441565.647,4475900.480,ETRS89,40.43169247,-3.68892131,PASEO,CASTELLANA,31,28046,bulevar paseo de la castellana,11041130,,FUE_07_0010,FUE25,ZV,PERSONAS,MU-37D
529529,Fuentes de beber,033,ESTRELLA,03,RETIRO,OPERATIVO,443835.69,4474016.74,ETRS89,40.4148791,-3.66199361,CALLE,JUAN ESPLANDIU,4,28007,"en area canina, proximo a templete de parque roma",11013635,,FUE_03_0005,FUE25,ZV,MASCOTAS,BEBEDERO NEPTUNO
529532,Fuentes de beber,022,ACACIAS,02,ARGANZUELA,OPERATIVO,439850.110,4472236.450,ETRS89,40.3985629,-3.70879901,PASEO,YESERIAS,29,28005,"c/v tramo pº yeserias cortado, junto farola 18",11010595,,FUE_02_0049,FUE25,VP,PERSONAS,OTRO
529533,Fuentes de beber,033,ESTRELLA,03,RETIRO,OPERATIVO,443511.25,4474224.19,ETRS89,40.41672597,-3.66583588,CALLE,MARQUES DE LOZOYA,10,28007,"posterior, en pº john lennon del parque",11013629,,FUE_03_0010,FUE25,ZV,PERSONAS,MU-37A
529534,Fuentes de beber,024,LEGAZPI,02,ARGANZUELA,OPERATIVO,441432.21,4471174.58,ETRS89,40.38910978,-3.69005938,CALLE,HIERRO,8 A,28045,"c/v c/ sodio, junto área infantil",11009345,,FUE_02_0030,FUE25,ZV,PERSONAS,MU-37A
529537,Fuentes de beber,032,ADELFAS,03,RETIRO,FUERA_DE_SERVICIO,443396.75,4472871.44,ETRS89,40.40453187,-3.66706507,CALLE,FEDERICO MORENO TORROBA,11,28007,"posterior, en parque junto m-30, proximo a area infantil",11011777,,FUE_03_0008,FUE25,ZV,PERSONAS,MU-37C
529538,Fuentes de beber,026,PALOS DE LA FRONTERA,02,ARGANZUELA,OPERATIVO,441101.280,4472610.030,ETRS89,40.40201773,-3.69409097,PLAZA,LUCA DE TENA,13,28045,"c/v c/ canarias, en parque junto area infantil",20149805,,FUE_02_0010,FUE25,ZV,PERSONAS,MU-37A
529539,Fuentes de beber,025,DELICIAS,02,ARGANZUELA,OPERATIVO,441584.47,4471881.32,ETRS89,40.39548717,-3.68833036,CALLE,PARROCO EUSEBIO CUENCA,46,28045,"parque frente nº 46, junto area infantil",20102196,,FUE_02_0007,FUE25,ZV,PERSONAS,MU-37A
529541,Fuentes de beber,024,LEGAZPI,02,ARGANZUELA,OPERATIVO,441741.737,4471442.763,ETRS89,40.39154743,-3.68643723,CALLE,ANTRACITA,32,28045,"proximo a farola  35, en parque antracita",20170760,2023-04-17 00:00:00.0,FUE_02_0042,FUE25,ZV,PERSONAS,MU-37A
529545,Fuentes de beber,022,ACACIAS,02,ARGANZUELA,OPERATIVO,439945.830,4472643.690,ETRS89,40.40223843,-3.70770956,CALLE,GASOMETRO,32,28005,"en parque, entre cancha de baloncesto y area infantil",31044316,,FUE_02_0023,FUE25,ZV,PERSONAS,MU-37A
529546,Fuentes de beber,032,ADELFAS,03,RETIRO,OPERATIVO,443269.911,4472779.578,ETRS89,40.40369569,-3.66855157,CALLE,LUIS MITJANS,56,28007,"entre area infantil y pistas deportivas, en parque adelfas",20008476,,FUE_03_0012,FUE25,ZV,PERSONAS,MU-37A
529548,Fuentes de beber,073,TRAFALGAR,07,CHAMBERI,OPERATIVO,440563.483,4475989.376,ETRS89,40.43242228,-3.70074396,PLAZA,OLAVIDE,16,28010,"plaza de olavide, junto a zona infantil",31041820,2024-12-17 00:00:00.0,FUE_07_0044,FUE25,ZV,PERSONAS,FUENTE_ACCESIBLE
529550,Fuentes de beber,031,PACIFICO,03,RETIRO,OPERATIVO,442611.07,4472452.1,ETRS89,40.40070044,-3.67628583,CALLE,COCHERAS,1,28007,junto area infantil en parque deportivo pacificio-mendez alvaro,20001198,,FUE_03_0017,FUE25,ZV,PERSONAS,MU-37A
529553,Fuentes de beber,032,ADELFAS,03,RETIRO,OPERATIVO,443110.96,4472923.75,ETRS89,40.40498363,-3.67043754,CALLE,ADELFAS,40,28007,"frente  farola 17, en parque junto area infantil",11011731,,FUE_03_0021,FUE25,ZV,PERSONAS,MU-37A
529557,Fuentes de beber,032,ADELFAS,03,RETIRO,FUERA_DE_SERVICIO,443176.26,4472237.0,ETRS89,40.39880146,-3.66960672,CALLE,ARREGUI Y ARUEJ,2,28007,en pº de las mujeres del parque martin luther king,11011387,,FUE_03_0024,FUE25,ZV,PERSONAS,MU-37A
5241774,Fuentes de beber,174,LOS ROSALES,17,VILLAVERDE,OPERATIVO,441731.6,4467446.25,ETRS89,40.35554384,-3.68619136,CALLE,AUGUSTOBRIGA,13,28021,"frente farola 36, en zona central parque junto area infantil",31030218,2020-01-27 00:00:00.0,FUE_17_0127,FUE25,ZV,PERSONAS,MU-37A
5242892,Fuentes de beber,102,PUERTA DEL ANGEL,10,LATINA,OPERATIVO,437432.65,4473211.21,ETRS89,40.40716583,-3.73737969,PLAZA,PATRIARCA EIJO Y GARAY,2,28011,"junto area infantil, pr0ximo a fuente ornamental, en parque",11062431,2020-01-14 00:00:00.0,FUE_10_0117,FUE25,ZV,PERSONAS_Y_MASCOTAS,MIXTA TERRIER
5249643,Fuentes de beber,064,ALMENARA,06,TETUAN,OPERATIVO,440879.731,4480412.91,ETRS89,40.4722939,-3.6974276,CALLE,PADRE RUBIO,84,28029,área canina,11032586,2020-01-13 00:00:00.0,FUE_06_0089,FUE25,ZV,PERSONAS,BEBEDERO NEPTUNO
5270041,Fuentes de beber,163,CANILLAS,16,HORTALEZA,OPERATIVO,446874.29,4479304.51,ETRS89,40.4627139,-3.62662266,CALLE,SILVANO,157,28043,c/v c/ juan clemente nuñez,20065860,2020-02-11 00:00:00.0,FUE_16_0167,FUE25,VP,PERSONAS,MU-37A
5270342,Fuentes de beber,205,ROSAS,20,SAN BLAS-CANILLEJAS,OPERATIVO,448828.384,4476524.964,ETRS89,40.43779673,-3.60335119,AVENIDA,LUIS ARAGONES,2,28022,junto avc y acceso a puertas n1 y n2 del estadio metropolitano,31056316,2020-02-18 00:00:00.0,FUE_20_0124,FUE25,VP,PERSONAS,MU-37A
5272336,Fuentes de beber,022,ACACIAS,02,ARGANZUELA,OPERATIVO,439653.81,4472810.01,ETRS89,40.4037156,-3.71116639,PASEO,OLMOS,24,28005,"junto farolin 7, proximo a area infantil en jardin interbloques",20180138,2020-02-10 00:00:00.0,FUE_02_0062,FUE25,ZV,PERSONAS,CASTIZA
529386,Fuentes de beber,164,PINAR DEL REY,16,HORTALEZA,OPERATIVO,444028.256,4479425.226,ETRS89,40.46361452,-3.66020048,CALLE,DUQUESA DE CASTREJON,17,28033,bulevar,11118039,2024-12-03 00:00:00.0,FUE_16_0180,FUE25,VP,PERSONAS,METROPOLIS
529389,Fuentes de beber,062,CUATRO CAMINOS,06,TETUAN,OPERATIVO,440740.973,4478248.922,ETRS89,40.45278993,-3.69886232,AVENIDA,GENERAL PERON,4,28020,"jardines perón, junto a zona infantil",11029769,2023-07-25 00:00:00.0,FUE_06_0056,FUE25,ZV,PERSONAS,METROPOLIS
529393,Fuentes de beber,065,VALDEACEDERAS,06,TETUAN,OPERATIVO,440149.929,4480122.572,ETRS89,40.46962616,-3.70600889,PASEO,DIRECCION,277,28029,,11035117,,FUE_06_0067,FUE25,VP,PERSONAS,MU-37A
529398,Fuentes de beber,014,JUSTICIA,01,CENTRO,OPERATIVO,441150.186,4475173.587,ETRS89,40.42511498,-3.69375182,PLAZA,VILLA DE PARIS,1 D,28004,plaza villa de paris,31071544,,FUE_01_0005,FUE25,ZV,PERSONAS,MU-37A
529399,Fuentes de beber,015,UNIVERSIDAD,01,CENTRO,OPERATIVO,440248.156,4475384.045,ETRS89,40.42694659,-3.70440444,CALLE,DOS DE MAYO,1,28004,plaza dos de mayo,11006199,,FUE_01_0020,FUE25,ZV,PERSONAS_Y_MASCOTAS,MIXTA ESTELA
529400,Fuentes de beber,012,EMBAJADORES,01,CENTRO,OPERATIVO,439735.545,4473379.12,ETRS89,40.40884834,-3.71025712,CALLE,ARGANZUELA,1,28005,,20004170,1815-01-01 00:00:00.0,FUE_01_0031,FUE25,VP,PERSONAS,PATRIMONIO_HISTORICO
529401,Fuentes de beber,065,VALDEACEDERAS,06,TETUAN,OPERATIVO,440616.577,4479525.265,ETRS89,40.46427887,-3.70044867,CALLE,FRAY JUNIPERO SERRA,27,28039,junto a zona infantil,31023060,2024-09-23 00:00:00.0,FUE_06_0064,FUE25,ZV,PERSONAS,MU-37A
529402,Fuentes de beber,065,VALDEACEDERAS,06,TETUAN,OPERATIVO,439805.974,4479786.85,ETRS89,40.466577,-3.71003414,CALLE,VILLAAMIL,90,28039,parque huerta del obispo,31050938,,FUE_06_0003,FUE25,ZV,PERSONAS,MU-37A
529406,Fuentes de beber,064,ALMENARA,06,TETUAN,OPERATIVO,441230.95,4480238.83,ETRS89,40.47075065,-3.69326852,CALLE,GENERAL PINTOS,22 B,28029,cv calle padre rubio,31066898,,FUE_06_0068,FUE25,VP,PERSONAS,OTRO
529408,Fuentes de beber,011,PALACIO,01,CENTRO,OPERATIVO,438875.494,4474067.67,ETRS89,40.4149884,-3.7204588,PASEO,VIRGEN DEL PUERTO,3 B,28005,"parque de atenas, junto a pista deportiva.",31044315,,FUE_01_0021,FUE25,ZV,PERSONAS,MU-37A
529409,Fuentes de beber,012,EMBAJADORES,01,CENTRO,OPERATIVO,440159.847,4473092.675,ETRS89,40.40629851,-3.70522986,CALLE,CASINO,3,28005,parque casino de la reina. recinto cerrado/vallado,11002270,2023-10-05 00:00:00.0,FUE_01_0030,FUE25,ZV,PERSONAS,OTRO
529410,Fuentes de beber,065,VALDEACEDERAS,06,TETUAN,OPERATIVO,439873.2,4480226.63,ETRS89,40.47054357,-3.70928289,CALLE,SINESIO DELGADO,23,28029,parque agustin rodriguez sahagun,31045419,,FUE_06_0032,FUE25,ZV,PERSONAS,MU-37A
529411,Fuentes de beber,065,VALDEACEDERAS,06,TETUAN,OPERATIVO,440730.491,4479706.39,ETRS89,40.46591866,-3.69912202,CALLE,SIERRA BULLONES,5,28029,,11034125,,FUE_06_0063,FUE25,VP,PERSONAS,PIEDRA VP
529412,Fuentes de beber,015,UNIVERSIDAD,01,CENTRO,OPERATIVO,439601.252,4475244.82,ETRS89,40.42564568,-3.7120169,PLAZA,CRISTINO MARTOS,2,28015,plaza cristino martos,11006548,,FUE_01_0006,FUE25,ZV,PERSONAS,BARCINO
529418,Fuentes de beber,011,PALACIO,01,CENTRO,OPERATIVO,439838.451,4474407.33,ETRS89,40.41811837,-3.70914163,PLAZA,ISABEL II,8,28013,plaza isabel ii,20003836,,FUE_01_0037,FUE25,VP,PERSONAS,FUENTE_ACCESIBLE
529419,Fuentes de beber,066,BERRUGUETE,06,TETUAN,OPERATIVO,439991.92,4478894.03,ETRS89,40.45854758,-3.7077565,CALLE,ALONSO NUÑEZ,7,28039,cv calle de las margaritas,11038153,,FUE_06_0061,FUE25,VP,PERSONAS,PIEDRA VP
529421,Fuentes de beber,014,JUSTICIA,01,CENTRO,OPERATIVO,441272.088,4475206.717,ETRS89,40.42542205,-3.69231794,CALLE,ORELLANA,27,28004,plaza villa de paris,20103453,,FUE_01_0004,FUE25,ZV,PERSONAS,MU-37G
529422,Fuentes de beber,066,BERRUGUETE,06,TETUAN,OPERATIVO,440220.017,4478995.663,ETRS89,40.45947957,-3.70507601,CALLE,BERRUGUETE,63,28039,c/v calle serrallo,11037689,,FUE_06_0053,FUE25,VP,PERSONAS,PIEDRA VP
529426,Fuentes de beber,011,PALACIO,01,CENTRO,OPERATIVO,439073.74,4474105.151,ETRS89,40.41534058,-3.71812588,PASEO,VIRGEN DEL PUERTO,4,28005,"parque de atenas, próxima al estanque",31011490,,FUE_01_0028,FUE25,ZV,PERSONAS,OTRO
529428,Fuentes de beber,064,ALMENARA,06,TETUAN,OPERATIVO,441239.28,4480555.74,ETRS89,40.47360609,-3.69319962,CALLE,VIA LIMITE,65,28029,"parque de la ventilla, junto acceso",11032312,,FUE_06_0012,FUE25,ZV,PERSONAS,MU-37A
529429,Fuentes de beber,065,VALDEACEDERAS,06,TETUAN,OPERATIVO,439773.717,4480262.58,ETRS89,40.47086022,-3.71045977,CALLE,SINESIO DELGADO,23,28029,parque agustin rodriguez sahagun,31045419,,FUE_06_0031,FUE25,ZV,PERSONAS,MU-37A
529431,Fuentes de beber,066,BERRUGUETE,06,TETUAN,OPERATIVO,440371.251,4478939.4,ETRS89,40.4589836,-3.70328712,CALLE,MARTINEZ,15,28039,c/ martínez 15,20012948,,FUE_06_0016,FUE25,ZV,PERSONAS,MU-37A
529559,Fuentes de beber,036,NIÑO JESUS,03,RETIRO,OPERATIVO,442597.2,4473814.91,ETRS89,40.41297641,-3.67657219,CALLE,PIO BAROJA,15,28009,"c/v avda. menendez pelayo, en isleta central",31042513,,FUE_03_0032,FUE25,ZV,PERSONAS,ESCULTURA PATRIMONIO HISTÓRICO
529561,Fuentes de beber,036,NIÑO JESUS,03,RETIRO,OPERATIVO,443016.8,4473434.55,ETRS89,40.40957876,-3.67159288,CALLE,ANTONIO DIAZ-CAÑABATE,4,28007,junto campo de futbito y area infantl,11013212,,FUE_03_0035,FUE25,ZV,PERSONAS,MU-37A
529565,Fuentes de beber,031,PACIFICO,03,RETIRO,OPERATIVO,442710.1,4472990.583,ETRS89,40.40555821,-3.67516738,CALLE,CAVANILLES,38,28007,"c/v c/ abtao, frente farola 27",11010988,,FUE_03_0042,FUE25,VP,PERSONAS,MU-37C
529566,Fuentes de beber,035,LOS JERONIMOS,03,RETIRO,OPERATIVO,441316.550,4474539.490,ETRS89,40.41941448,-3.69173226,CALLE,ALCALA,50,28014,junto farola 190-192,20150628,,FUE_03_0043,FUE25,VP,PERSONAS,OTRO
529568,Fuentes de beber,031,PACIFICO,03,RETIRO,OPERATIVO,441974.020,4472716.390,ETRS89,40.40303716,-3.68381658,CALLE,COMERCIO,10 D,28007,junto farola 76 y paso servicios y urgencias,31012753,2016-11-16 00:00:00.0,FUE_03_0045,FUE25,VP,PERSONAS,MU-37B
529570,Fuentes de beber,044,GUINDALERA,04,SALAMANCA,OPERATIVO,443966.79,4476416.15,ETRS89,40.43650312,-3.66065993,AVENIDA,BRASILIA,7,28028,junto area infantil parque breogan,11017751,,FUE_04_0002,FUE25,ZV,PERSONAS,MU-37A
529571,Fuentes de beber,044,GUINDALERA,04,SALAMANCA,OPERATIVO,444002.46,4476648.21,ETRS89,40.43859604,-3.66025984,AVENIDA,BRASILIA,13,28028,proximo a mesas de pingpong y area infantil parque de las avenidas,11017861,,FUE_04_0003,FUE25,ZV,PERSONAS,MU-37B
529575,Fuentes de beber,044,GUINDALERA,04,SALAMANCA,OPERATIVO,443964.88,4476972.97,ETRS89,40.44151911,-3.66073155,AVENIDA,BRASILIA,6,28028,"junto área infantil,  en parque de las avenidas",31026007,,FUE_04_0006,FUE25,ZV,PERSONAS,MU-37A
529576,Fuentes de beber,044,GUINDALERA,04,SALAMANCA,OPERATIVO,443362.71,4475772.51,ETRS89,40.43066396,-3.66772452,CALLE,DOCTOR GOMEZ ULLA,11,28028,"c/v c/ florestan aguilar, junto escaleras de acceso a parque",11017103,,FUE_04_0010,FUE25,ZV,PERSONAS,OTRO
529582,Fuentes de beber,043,FUENTE DEL BERRO,04,SALAMANCA,OPERATIVO,443940.99,4475102.67,ETRS89,40.42466885,-3.66084827,CALLE,DOLORES ROMERO,53,28028,entre area infantil y cohete,11016068,2023-06-16 00:00:00.0,FUE_04_0013,FUE25,ZV,PERSONAS,CASTIZA
529432,Fuentes de beber,014,JUSTICIA,01,CENTRO,OPERATIVO,441077.26,4475077.76,ETRS89,40.42424657,-3.69460257,PLAZA,SALESAS,1 B,28004,plaza de las salesas,31041455,2017-08-01 00:00:00.0,FUE_01_0003,FUE25,ZV,PERSONAS,MU-37AA
529433,Fuentes de beber,061,BELLAS VISTAS,06,TETUAN,OPERATIVO,439815.541,4478313.25,ETRS89,40.45330293,-3.70978157,CALLE,MARIA PEDRAZA,18,28039,cv calle alejandro rodriguéz,20010668,,FUE_06_0060,FUE25,VP,PERSONAS,PIEDRA VP
529436,Fuentes de beber,011,PALACIO,01,CENTRO,OPERATIVO,439005.2,4474042.99,ETRS89,40.41477558,-3.71892773,CALLE,SEGOVIA,30,28005,parque de atenas,31047537,,FUE_01_0027,FUE25,ZV,PERSONAS,MU-37C
529437,Fuentes de beber,013,CORTES,01,CENTRO,OPERATIVO,441186.387,4473797.87,ETRS89,40.41272441,-3.69319788,PASEO,PRADO,22,28014,paseo del prado,11003752,,FUE_01_0017,FUE25,ZV,PERSONAS,MU-37A
529439,Fuentes de beber,066,BERRUGUETE,06,TETUAN,OPERATIVO,440539.16,4478823.59,ETRS89,40.45795236,-3.70129602,CALLE,BRAVO MURILLO,239,28020,plaza canal de isabel ii,11037887,,FUE_06_0058,FUE25,VP,PERSONAS,FUENTE_ACCESIBLE
529440,Fuentes de beber,065,VALDEACEDERAS,06,TETUAN,OPERATIVO,440772.445,4479786.23,ETRS89,40.46664088,-3.69863463,CALLE,SIERRA BULLONES,25,28029,c/v plátano,11034122,,FUE_06_0050,FUE25,ZV,PERSONAS,BRAVO MURILLO
529444,Fuentes de beber,065,VALDEACEDERAS,06,TETUAN,OPERATIVO,440365.086,4479890.66,ETRS89,40.46755248,-3.70344922,CALLE,ANTONIO LANZUELA,41,28029,plaza de ladera,20001350,,FUE_06_0038,FUE25,ZV,PERSONAS,MU-37C
529445,Fuentes de beber,065,VALDEACEDERAS,06,TETUAN,OPERATIVO,440531.79,4479731.39,ETRS89,40.46612967,-3.701468,CALLE,CAPITAN BLANCO ARGIBAY,63,28029,cv calle garci-nuño,20012066,,FUE_06_0070,FUE25,VP,PERSONAS,PIEDRA VP
529451,Fuentes de beber,015,UNIVERSIDAD,01,CENTRO,OPERATIVO,440465.539,4475071.01,ETRS89,40.42414221,-3.70181262,PLAZA,SAN ILDEFONSO,7,28004,plaza san ildefonso,20005958,,FUE_01_0007,FUE25,ZV,PERSONAS,OTRO
529452,Fuentes de beber,011,PALACIO,01,CENTRO,OPERATIVO,439304.747,4473492.44,ETRS89,40.40983788,-3.7153448,CALLE,ROSARIO,23,28005,"parque de la cornisa, junto a pistas deportivas",11001197,2025-06-05 00:00:00.0,FUE_01_0012,FUE25,ZV,PERSONAS,MU-37AA
529456,Fuentes de beber,065,VALDEACEDERAS,06,TETUAN,OPERATIVO,439832.134,4480159.423,ETRS89,40.46993517,-3.70976092,CALLE,CAPITAN BLANCO ARGIBAY,210,28029,parque agustín rodríguez sahagún,31044365,,FUE_06_0051,FUE25,ZV,PERSONAS,MU-37A
529459,Fuentes de beber,062,CUATRO CAMINOS,06,TETUAN,OPERATIVO,440801.676,4478257.006,ETRS89,40.45286708,-3.69814723,AVENIDA,GENERAL PERON,9 B,28020,jardines perón,31047944,2023-07-25 00:00:00.0,FUE_06_0057,FUE25,ZV,PERSONAS,METROPOLIS
529460,Fuentes de beber,011,PALACIO,01,CENTRO,OPERATIVO,439346.712,4473805.94,ETRS89,40.41266509,-3.71488013,CALLE,MORERIA,14,28005,jardines plaza gabriel miro,31038860,,FUE_01_0024,FUE25,ZV,PERSONAS,OTRO
529463,Fuentes de beber,066,BERRUGUETE,06,TETUAN,OPERATIVO,440285.141,4479001.97,ETRS89,40.45954107,-3.70430855,CALLE,JUAN DEL RISCO,50,28039,,11037856,,FUE_06_0072,FUE25,VP,PERSONAS,MU-37C
529464,Fuentes de beber,064,ALMENARA,06,TETUAN,OPERATIVO,441032.339,4479674.56,ETRS89,40.4656534,-3.69555882,CALLE,PINOS ALTA,11,28029,c/v manuel marchamalo,11033688,,FUE_06_0049,FUE25,ZV,PERSONAS,BRAVO MURILLO
