IdStation,Name,Address,DockBikes,FreeBases,TotalBases,Estado,NoAvailabl,Longitud,Latitud
1406,2 - Metro Callao,"Calle Miguel Moya, 1",15,12,27,Poca disponibilidad,Disponible,-3.70569,40.4204
1407,3 - Plaza Conde Suchil,"Plaza Conde Surchill, 4",3,16,19,Fuera de servicio,Disponible,-3.707254,40.430322
1408,4 - Malasaña,"Calle Manuela Malasaña, 3",2,25,27,Fuera de servicio,Disponible,-3.7025,40.428626
1409,5 - Fuencarral,"Calle Fuencarral, 106",4,23,27,Fuera de servicio,Disponible,-3.702135,40.428521
1410,6 - Colegio Arquitectos,"Calle Hortaleza, 63",9,9,19,Poca disponibilidad,Disponible,-3.698447,40.424148
1411,7 - Hortaleza,"Calle Hortaleza, 75",18,1,19,Disponible,Disponible,-3.697771,40.425191
1412,8 - Metro Alonso Martínez,"Plaza de Alonso Martínez, 6",19,5,24,Disponible,Disponible,-3.69544,40.427868
1413,9 - Plaza de San Miguel,"Plaza de San Miguel, 10",12,12,24,Poca disponibilidad,Disponible,-3.709508,40.415606
1414,10 - Marqués de la Ensenada,"Calle Marqués de la Ensenada (junto a edif, Centro Colón)",21,2,23,Disponible,Disponible,-3.692104,40.425403
1415,11 - Plaza del Dos de Mayo,"Calle San Andrés, 18 - 20",2,21,23,Fuera de servicio,Disponible,-3.7036,40.427
1416,12 - San Hermenegildo,"Calle San Bernardo, 85 - 87",11,16,27,Poca disponibilidad,Disponible,-3.706141,40.428467
1417,13 - Conde Duque,"Calle Conde Duque, 22",3,20,23,Fuera de servicio,Disponible,-3.7105,40.4273
1418,14 - Ventura Rodríguez,"Ventura Rodríguez, 3",5,22,27,Fuera de servicio,Disponible,-3.713307,40.426043
1419,15 - Norte,"Calle norte, 10",1,18,19,Fuera de servicio,Disponible,-3.707445,40.426238
1420,16 - San Bernardo,"Calle San Bernardo, 22",7,12,19,Poca disponibilidad,Disponible,-3.707481,40.422937
1421,17 - Plaza de Carlos Cambronero,"Plaza de Carlos Cambronero, 2",6,17,23,Fuera de servicio,Disponible,-3.704166,40.423126
1422,18 - Plaza de Pedro Zerolo,"Plaza de Pedro Zerolo, 20",9,15,24,Poca disponibilidad,Disponible,-3.699678,40.420925
1423,19 - Prim,"Calle Prim, 4",20,8,28,Disponible,Disponible,-3.695498,40.421862
1424,20A - Banco de España,"Calle Alcalá, 48",15,12,27,Poca disponibilidad,Disponible,-3.695247,40.418808
1426,23 - Santo Domingo,"Plaza de Santo Domingo, 1",6,18,24,Fuera de servicio,Disponible,-3.708249,40.42026
1427,24 - Palacio de Oriente,"Calle Carlos III, 1",12,6,18,Poca disponibilidad,Disponible,-3.71065,40.417767
1428,25A - Plaza de Celenque A,"Plaza de Celenque, 1",6,18,24,Fuera de servicio,Disponible,-3.705779,40.41737
1429,25B - Plaza de Celenque B,"Plaza de Celenque, 1",13,11,24,Poca disponibilidad,Disponible,-3.705898,40.417369
1430,26 - Plaza de las Salesas,"Plaza de las Salesas, 2",15,12,27,Poca disponibilidad,Disponible,-3.6945,40.4239
1431,27 - Huertas,"Calle Jesús, 6",15,12,27,Poca disponibilidad,Disponible,-3.6957,40.4133
1432,28 - Metro Sevilla,"Calle Alcalá, 28",17,1,18,Disponible,Disponible,-3.698458,40.41806
1433,29 - Marqués de Cubas,"Calle del Marqués de Cubas, 25",20,3,23,Disponible,Disponible,-3.695743,40.416384
1434,30 - San Quintín,"Calle Pavía, 4",8,19,27,Fuera de servicio,Disponible,-3.711504,40.41921
1435,31 - Mayor,"Calle Mayor, 16",18,9,27,Poca disponibilidad,Disponible,-3.706897,40.416364
1436,32 - Plaza de la Provincia,Plaza de la Provincia (esquina calle Gerona),17,1,18,Disponible,Disponible,-3.706103,40.41501
1437,33 - Puerta del Sol,"Calle Carretas, 3",19,4,23,Disponible,Disponible,-3.70333,40.416587
1438,34 - Jacinto Benavente,Plaza de Jacinto Benavente,3,21,24,Fuera de servicio,Disponible,-3.703683,40.414676
1439,35 - Plaza del Cordón,"Plaza del Cordón,1",18,6,24,Disponible,Disponible,-3.710329,40.414193
1440,36 - Plaza Ramales,"Plaza de Ramales,1",14,10,24,Poca disponibilidad,Disponible,-3.71183,40.4168
1441,37 - Plaza de San Francisco,Plaza de San Francisco,13,11,24,Poca disponibilidad,Disponible,-3.714113,40.4108
1442,38 - Plaza de los Carros,"Carrera de San Francisco enfrente del, 2",17,9,27,Poca disponibilidad,Disponible,-3.71159,40.411359
1443,39 - Plaza de la Cebada,"Plaza de la Cebada, 3",4,27,31,Fuera de servicio,Disponible,-3.708834,40.411274
1444,40 - Conde de Romanones,"Plaza del Conde de Romanones, 2",2,16,18,Fuera de servicio,Disponible,-3.704795,40.413778
1445,41 - Metro Antón Martín,"Calle Atocha, 56",12,7,19,Poca disponibilidad,Disponible,-3.699115,40.412205
1446,42 - Santa Isabel,"Calle Santa Isabel, 32",0,26,27,Fuera de servicio,Disponible,-3.698292,40.410849
1447,43 - Jesús y María,"Calle Jesús y María, 38",12,6,18,Poca disponibilidad,Disponible,-3.702471,40.410039
1448,44 - Plaza de Nelson Mandela,"Plaza Nelson Mandela, 44",1,18,19,Fuera de servicio,Disponible,-3.703864,40.409791
1449,45 - Metro Puerta de Toledo,"Puerta de Toledo, 1",9,10,19,Poca disponibilidad,Disponible,-3.711103,40.406866
1450,46 - Ribera de Curtidores,"Calle Ribera de Curtidores, 28",14,13,27,Poca disponibilidad,Disponible,-3.707126,40.405315
1451,47 - Renfe/Cercanías Embajadores,"Glorieta de Embajadores, 7",11,13,24,Poca disponibilidad,Disponible,-3.7028,40.404577
1452,48 - Casa de baños Embajadores,"Glorieta de Embajadores, 7",18,6,24,Disponible,Disponible,-3.702057,40.405482
1453,49 - Casa Encendida,"Ronda de Atocha, 34",12,15,27,Poca disponibilidad,Disponible,-3.699277,40.406053
1454,50 - Museo Reina Sofía,Calle de Santa Isabel (esquina con plaza del Emperador Carlos V),22,2,24,Disponible,Disponible,-3.693346,40.408368
1455,51 - Ronda de Atocha,Ronda de Atocha (esquina con Plaza del Emperador Carlos V),24,3,27,Disponible,Disponible,-3.69352,40.407561
1456,52 - Plaza de Santa Ana,"Plaza de Santa Ana, 10",9,6,15,Poca disponibilidad,Disponible,-3.700716,40.414423
1457,53 - Plaza de Lavapiés,Plazuela de Ana Diosdado,8,16,24,Poca disponibilidad,Disponible,-3.700754,40.408309
1458,54 - Metro Tribunal,"Calle Barceló, 9",15,4,19,Disponible,Disponible,-3.700393,40.426599
1459,55 - Plaza de San Ildefonso,"Plaza de San Ildefonso,4",3,21,24,Fuera de servicio,Disponible,-3.702084,40.423976
1460,56 - Plaza del Carmen,"Plaza del Carmen, 1",14,9,23,Poca disponibilidad,Disponible,-3.703241,40.418419
1461,57 - Santa Cruz de Marcenado,"Calle Santa Cruz del Marcenado, 26",18,5,23,Disponible,Disponible,-3.71263,40.429566
1462,58 - Metro Chueca,"Calle Augusto Figueroa, 33",7,20,27,Fuera de servicio,Disponible,-3.697858,40.422278
1463,59 - Plaza de Juan Pujol,"Calle Espíritu Santo, 30",4,15,19,Fuera de servicio,Disponible,-3.704342,40.42555
1464,60 - Puerta de Alcalá,Plaza de la Independencia,10,13,23,Poca disponibilidad,Disponible,-3.688398,40.419752
1465,61 - O Donnell - Narváez,"Calle O Donnell, 30",24,3,27,Disponible,Disponible,-3.675314,40.421455
1466,62 - Hospital M. Infantil Gregorio Marañón,"Calle O Donnell, 48",22,5,27,Disponible,Disponible,-3.672497,40.421315
1467,63 - Hospital Gral. Uni. Gregorio Marañón,"Calle Ibiza, 64",4,19,23,Fuera de servicio,Disponible,-3.670896,40.417924
1468,65 - Parque del Retiro - Calle Antonio Maura,"Calle Antonio Maura, 13",22,2,24,Disponible,Disponible,-3.689425,40.416701
1469,67 - CaixaForum Madrid,"Calle Almadén, 26",23,0,23,Disponible,Disponible,-3.693225,40.410847
1470,68 - Espalter - Ruiz de Alarcón,"Calle Espalter, 3",11,8,19,Poca disponibilidad,Disponible,-3.691323,40.412769
1471,69 - Parque del Retiro - Puerta Ángel Caído,"Avenida de Alfonso XII, 54",8,19,27,Fuera de servicio,Disponible,-3.688822,40.409808
1472,70 - Hospital Uni. Infantil Niño Jesús,"Avenida de Menéndez Pelayo, 63",17,10,27,Poca disponibilidad,Disponible,-3.677873,40.415382
1473,71 - Plaza del Doctor Laguna,"Calle Doce de Octubre, 28",5,18,23,Fuera de servicio,Disponible,-3.6739,40.4161
1474,72 - Metro Sáinz de Baranda,"Calle Doctor Esquerdo, 62",7,16,23,Fuera de servicio,Disponible,-3.6696,40.4159
1475,73 - Plaza de los Astros,"Calle de los Astros, 5",9,14,23,Poca disponibilidad,Disponible,-3.6687,40.4115
1476,74 - Parque Retiro - Jardines Cecilio Rguez,"Avenida de Menéndez Pelayo, 69",20,7,27,Disponible,Disponible,-3.676589,40.412063
1477,75 - Parque del Retiro - Plaza Mariano Cavia,Avenida Menéndez Pelayo (esquina con calle Poeta Esteban Villegas),9,18,27,Poca disponibilidad,Disponible,-3.678475,40.408272
1478,"76 - Avenida del Mediterráneo, 19","Avenida del Mediterráneo, 19",4,20,24,Fuera de servicio,Disponible,-3.675102,40.407271
1479,77 - Plaza del Conde de Casal,"Plaza del Conde de Casal, 8",13,5,18,Disponible,Disponible,-3.670713,40.406478
1480,78 - Metro Pacífico,"Calle Cerro de la Plata, 4",12,15,27,Poca disponibilidad,Disponible,-3.674524,40.400637
1481,79 - Metro Menéndez Pelayo,"Avenida de Menéndez Pelayo, 38",8,19,27,Fuera de servicio,Disponible,-3.68044,40.40511
1484,81 - Cuesta de Moyano,"Calle Claudio Moyano, 5",0,24,24,Fuera de servicio,Disponible,-3.691833,40.409343
1485,82 - Doctor Esquerdo - Metro Conde de Casal,"Calle Lira, 1",1,22,23,Fuera de servicio,Disponible,-3.669753,40.408456
1486,83 - Pío Baroja,"Calle Pío Baroja, 8",6,17,23,Fuera de servicio,Disponible,-3.674479,40.4133
1487,84 - Biblioteca Pública Elena Fortún,"Calle Doctor Esquerdo, 191",3,20,23,Fuera de servicio,Disponible,-3.672482,40.403572
1488,85 - Parque del Retiro - Puerta de O´Donnell,"Avenida de Menéndez Pelayo, 9",11,16,27,Poca disponibilidad,Disponible,-3.679891,40.421314
1489,86 - Cibeles,"Paseo del Prado, 1B",22,2,24,Disponible,Disponible,-3.69335,40.418652
1490,87 - Ayala - Velázquez,"Calle Ayala, 46",22,1,23,Disponible,Disponible,-3.683257,40.427736
1491,88 - Velázquez-Padilla,"Calle Velázquez, 13",21,2,23,Disponible,Disponible,-3.68383,40.431358
1492,89 - Ayala - Conde de Peñalver,"Calle Ayala, 104",16,7,23,Poca disponibilidad,Disponible,-3.675202,40.427258
1493,90 - Metro Velázquez,"Calle Goya, 20",19,8,27,Disponible,Disponible,-3.683842,40.425149
1494,91 - Hermosilla - General Pardiñas,"Calle Hermosilla, 71",8,15,23,Poca disponibilidad,Disponible,-3.678628,40.426049
1495,92 - Claudio Coello - Hermosilla,"Calle Claudio Coello, 43",22,1,23,Disponible,Disponible,-3.686546,40.426294
1496,93 - Plaza de Margaret Tatcher,Calle Goya (esquina calle Marqués de Zurgeña),23,0,23,Disponible,Disponible,-3.689336,40.425759
1497,94 - Estación de tren de Recoletos,"Paseo de Recoletos, 20",20,3,23,Disponible,Disponible,-3.690756,40.423215
1498,95 - Claudio Coello - Villanueva,"Calle Claudio Coello, 19",22,1,23,Disponible,Disponible,-3.686929,40.422543
1499,96 - Alcalá - Castelló,"Calle Alcalá, 111",18,9,27,Poca disponibilidad,Disponible,-3.682205,40.422015
1500,97 - Metro Príncipe de Vergara,Avenida Menéndez Pelayo (esquina calle Alcalá),13,14,27,Poca disponibilidad,Disponible,-3.680256,40.422536
1501,98 - Plaza de Felipe II,"Calle Narváez, 3",20,4,24,Disponible,Disponible,-3.675768,40.424132
1502,99 - Alcántara - Hermosilla,"Calle Alcántara, 4",5,18,23,Fuera de servicio,Disponible,-3.674018,40.426039
1503,100 - Wizink Center,"Calle Goya, 99",6,21,27,Fuera de servicio,Disponible,-3.67384,40.42478
1504,101 - Metro O Donnell,"Calle Jorge Juán, 129",18,6,24,Disponible,Disponible,-3.66968,40.423077
1505,102 - Metro Retiro,"Calle Alcalá, 95",23,0,23,Disponible,Disponible,-3.684232,40.421185
1506,103 - Ortega y Gasset - Serrano,"Calle José Ortega y Gasset, 6",19,4,23,Disponible,Disponible,-3.686744,40.43053
1507,104 - Castellana - Hermosilla,"Paseo de la Castellana, 4",21,2,23,Disponible,Disponible,-3.68958,40.42677
1508,"105 - Serrano, 46","Calle Serrano, 46",20,3,23,Disponible,Disponible,-3.687542,40.427083
1510,106B - Plaza de Colón B,"Calle Serrano, 32",19,0,19,Disponible,Disponible,-3.68789,40.424776
1511,107 - Serrano - Conde de Aranda,"Calle Serrano, 8",16,7,23,Poca disponibilidad,Disponible,-3.688384,40.421561
1512,108 - Mártires Concepcionistas - Alcalá,"Calle Mártires Concepcionistas, 2",18,9,27,Poca disponibilidad,Disponible,-3.670652,40.427402
1513,109 - Marqués de Salamanca,"Calle José Ortega y Gasset, 30",22,1,23,Disponible,Disponible,-3.681452,40.430124
1514,110 - Intercambiador de Moncloa,"Paseo de Moret, 1",3,20,23,Fuera de servicio,Disponible,-3.720102,40.434745
1515,111A - Metro Moncloa A,"Calle Arcipreste de Hita, 8",4,19,23,Fuera de servicio,Disponible,-3.717525,40.433603
1516,111B - Metro Moncloa B,"Calle Arcipreste de Hita, 12",1,22,23,Fuera de servicio,Disponible,-3.717743,40.433913
1517,112 - Paseo de Moret - Parque del Oeste,"Paseo Moret, 9",17,6,23,Disponible,Disponible,-3.724736,40.43269
1518,113 - Teleférico Madrid - Estación Rosales,"Paseo del Pintor Rosales frente al, 38",16,8,24,Poca disponibilidad,Disponible,-3.720726,40.427538
1519,114 - Quintana - Juan Álvarez de Mendizábal,"Calle Quintana, 13",11,12,23,Poca disponibilidad,Disponible,-3.717463,40.427838
1520,115 - Ferraz - Templo de Debod,Paseo de Pintor Rosales (esquina Marqués de Cerralbo),5,18,23,Fuera de servicio,Disponible,-3.717052,40.425315
1521,116A - Plaza de España - Martín de los Heros,"Plaza de España,16",10,8,18,Poca disponibilidad,Disponible,-3.713043,40.423679
1522,116B - Metro Plaza de España,"Calle de los Reyes, 10",14,4,18,Disponible,Disponible,-3.71046,40.423684
1523,117 - Altamirano  - Martín de los Heros,"Calle Altamirano, 24",1,22,23,Fuera de servicio,Disponible,-3.71889,40.43098
1524,"118 - OFICINA DEL SER, APR Y BICIREGISTRO",Calle Juan Martínez el empeciado (esquina calle Bustamante),15,8,23,Poca disponibilidad,Disponible,-3.688241,40.400781
1525,119 - Méndez Álvaro,"Calle Méndez Álvaro, 11",18,5,23,Disponible,Disponible,-3.686265,40.401291
1526,120 - Metro Palos de la Frontera,"Calle Palos de la Frontera, 27",25,2,27,Disponible,Disponible,-3.694825,40.40309
1527,121 - Glorieta de Santa María de la Cabeza,"Paseo de Santa María de la Cabeza, 58",8,19,27,Fuera de servicio,Disponible,-3.698603,40.401749
1528,122 - Santa Engracia - Zurbarán,"Calle Santa Engracia, 14",18,5,23,Disponible,Disponible,-3.696366,40.429536
1529,123 - Metro Argüelles,"Calle Guzmán el Bueno, 2",13,14,27,Poca disponibilidad,Disponible,-3.713341,40.430646
1530,124 - Metro Bilbao,"Calle Manuel Silvela, 20",2,25,27,Fuera de servicio,Disponible,-3.699369,40.430969
1531,125 - Fdez. de la Hoz - Gral. Martínez Campos,"Calle Fernández de la Hoz, 29",21,6,27,Disponible,Disponible,-3.6948,40.4353
1532,126 - General Álvarez de Castro,"Calle del General Álvarez de Castro, 6",4,23,27,Fuera de servicio,Disponible,-3.701804,40.434598
1533,127 - Mercado Municipal de Vallehermoso,"Calle Fernando el Católico, 19",3,24,27,Fuera de servicio,Disponible,-3.708439,40.433852
1534,128 - Metro Islas Filipinas,"Calle Cea Bermúdez, 59",20,7,27,Disponible,Disponible,-3.7154,40.4392
1535,129 - Metro Alonso Cano,"Calle de José Abascal, 33-35",0,27,27,Fuera de servicio,Disponible,-3.698235,40.438387
1536,130 - Metro Ríos Rosas,"Calle de Santa Engracia, 129",19,4,23,Disponible,Disponible,-3.70164,40.44156
1537,131 - Plaza de Juan Zorrilla,"Calle Bravo Murillo, 44",8,15,23,Poca disponibilidad,Disponible,-3.704031,40.441788
1538,132 - Glorieta de Cuatro Caminos,"Calle Santa Engracia, 164",14,13,27,Poca disponibilidad,Disponible,-3.703605,40.446378
1539,133 - Raimundo Fdez. Villaverde - Dulcinea,"Calle Dulcinea, 3",0,24,24,Fuera de servicio,Disponible,-3.700167,40.447125
1540,134 - María de Guzmán - Agustín de Betancourt,"Calle María de Guzmán, 58",2,21,23,Fuera de servicio,Disponible,-3.695569,40.444182
1541,135 - Plaza de San Juan de la Cruz,"Plaza de San Juan de la Cruz, 10",23,0,23,Disponible,Disponible,-3.692734,40.441481
1542,136 - Metro Nuevos Ministerios,"Paseo de la Castellana, 106",21,2,23,Disponible,Disponible,-3.690769,40.445124
1543,137 - Plaza de la República Argentina,"Plaza de la republica argentina, 7",19,5,24,Disponible,Disponible,-3.685338,40.445448
1544,138 - Estación de tren Nuevos Ministerios,"Paseo de la Castellana, 63",13,10,23,Poca disponibilidad,Disponible,-3.691406,40.445741
1545,139 - José Gutiérrez Abascal - Castellana,"Calle Pedro de Valdivia, 2",16,8,24,Poca disponibilidad,Disponible,-3.690419,40.439396
1546,140 - Velázquez - López de Hoyos,"Calle Velázquez, 134",22,5,27,Disponible,Disponible,-3.683058,40.438757
1547,141 - Plaza de Emilio Castelar,"Paseo de la Castellana, 43",8,4,12,Poca disponibilidad,Disponible,-3.689392,40.435405
1548,142 - Bajo elevado de Eduardo Dato,"Paseo de la Castellana, 42",20,3,23,Disponible,Disponible,-3.687915,40.433409
1549,186 - General Pardiñas - Don Ramón de la Cruz,"Calle General Pardiñas, 58",13,10,23,Poca disponibilidad,Disponible,-3.678302,40.42898
1550,144 - Metro Diego de León,"Calle de Juan Bravo, 51",15,12,27,Poca disponibilidad,Disponible,-3.675556,40.432408
1551,145 - Ortega y Gasset 87,"Calle Ortega y Gasset, 87",2,21,23,Fuera de servicio,Disponible,-3.671282,40.429887
1552,"146 - María Francisca, 3","Calle de María Francisca, 3",10,9,19,Poca disponibilidad,Disponible,-3.67885,40.444254
1553,147 - Doctor Arce 45,"Avenida del Doctor Arce, 45",4,19,23,Fuera de servicio,Disponible,-3.6794,40.4484
1554,148 - Serrano 210,"Calle Serrano, 210",9,14,23,Poca disponibilidad,Disponible,-3.681397,40.451117
1555,149 - Plaza de Quito,"Paseo de la Habana, 42",20,3,23,Disponible,Disponible,-3.68793,40.449852
1557,151 - Orense 12,"Calle Orense, 12",24,3,27,Disponible,Disponible,-3.695359,40.448812
1558,"152 - General Perón, 4","Avenida del General Perón, 4",3,20,23,Fuera de servicio,Disponible,-3.6989,40.4525
1559,153 - General Perón - Poeta Joan Maragall,"Avenida del General Perón, 36",20,3,23,Disponible,Disponible,-3.6936,40.4523
1560,154 - Orense 36,"Calle Orense, 36",12,12,24,Poca disponibilidad,Disponible,-3.694622,40.454846
1561,155 - San Germán 57,"Calle San Germán, 57",0,23,23,Fuera de servicio,Disponible,-3.70093,40.457334
1562,156 - Sor Ángela de la Cruz-Paseo Castellana,"Calle Sor Ángela de la Cruz, 2",21,3,24,Disponible,Disponible,-3.691533,40.459235
1564,158 - Alberto Alcocer - Padre Damián,"Avenida de Alberto Alcocer, 22",12,11,23,Poca disponibilidad,Disponible,-3.684625,40.45869
1565,159 - Paseo de la Habana 63,"Paseo de la Habana, 63",13,10,23,Poca disponibilidad,Disponible,-3.683593,40.454385
1566,160 - Metro Colombia,"Calle Colombia, 11",3,21,24,Fuera de servicio,Disponible,-3.676344,40.457247
1567,161 - Intercambiador de Príncipe Pío A,"Paseo de la Florida, 8",3,24,27,Fuera de servicio,Disponible,-3.722099,40.422192
1568,162 - Metro Pirámides,"Paseo de los Olmos, 26",13,10,23,Poca disponibilidad,Disponible,-3.710577,40.403497
1569,163 - Metro Acacias,"Paseo de la Esperanza, 2A",11,8,19,Poca disponibilidad,Disponible,-3.706445,40.403759
1570,164 - Paseo de las Delicias - Tomás Bretón,"Paseo de las Delicias, 94",7,20,27,Fuera de servicio,Disponible,-3.69461,40.39723
1571,165 - Entrada Matadero - Paseo de la Chopera,"Paseo de la Chopera frente, 51",12,31,43,Fuera de servicio,Disponible,-3.697596,40.392888
1572,166 - Viaducto de Segovia,"Calle Segovia, 26",15,12,27,Poca disponibilidad,Disponible,-3.713377,40.413905
1573,167 - Segovia 45,"Calle Segovia, 45",9,18,27,Poca disponibilidad,Disponible,-3.717489,40.413748
1574,168 - Santa María Cabeza - Batalla del Salado,"Paseo Santa María de la Cabeza frente al, 30",9,14,23,Poca disponibilidad,Disponible,-3.6959,40.4046
1575,169 - Glorieta de Pirámides,"Calle Toledo, 181",22,2,24,Disponible,Disponible,-3.713823,40.401589
1576,"170 - Paseo de la Esperanza, 21","Paseo de la Esperanza, 21",14,10,24,Poca disponibilidad,Disponible,-3.704396,40.401055
1577,171 - Embajadores-Cáceres,"Calle Embajadores, 97",15,12,27,Poca disponibilidad,Disponible,-3.698402,40.399701
1578,172 - Estación de tren de Delicias,"Calle Bustamante, 3",8,15,23,Poca disponibilidad,Disponible,-3.693493,40.400828
1579,173 - Paseo Esperanza - Santa María Cabeza,"Paseo de la Esperanza, 59",1,23,24,Fuera de servicio,Disponible,-3.702484,40.398347
1580,"174 - Paseo de las Yeserías, 45","Paseo de Yeserías, 45",1,26,27,Fuera de servicio,Disponible,-3.706526,40.39743
1581,175 - Jaime el Conquistador - Divino Vallés,"Calle Jaime el Conquistador, 30",2,17,19,Fuera de servicio,Disponible,-3.698345,40.396226
1583,177 - Metro Legazpi,"Calle Bolívar, 3",23,0,23,Disponible,Disponible,-3.694188,40.391447
1584,178 - Junta Municipal Distrito de Retiro,"Calle León Gil de Palacio, 1",4,20,24,Fuera de servicio,Disponible,-3.678834,40.40292
1585,179 - Metro Puente de Vallecas,"Avenida de la Albufera, 6",12,12,24,Poca disponibilidad,Disponible,-3.669272,40.397927
1586,180 - Estación Sur Méndez Álvaro B,Calle Retama (esquina con calle Acanto),22,1,23,Disponible,Disponible,-3.67589,40.394042
1587,181 - Ibiza - Narváez,"Calle Ibiza, 16",6,21,27,Fuera de servicio,Disponible,-3.676444,40.418169
1588,182 - Parque Roma,Alcalde Sainz de Baranda (esquina con calle de Juan Espladiu),15,8,23,Poca disponibilidad,Disponible,-3.665778,40.418667
1589,183 - Hermosilla - Doctor Esquerdo,"Calle Hermosilla, 135",3,20,23,Fuera de servicio,Disponible,-3.669339,40.425635
1590,"184 - Marqués de Zafra, 24","Paseo del Marqués Zafra, 24",4,20,24,Fuera de servicio,Disponible,-3.665306,40.426
1591,185 - Parque Quinta de la Fuente del Berro,"Calle Sancho Dávila, 35",7,17,24,Fuera de servicio,Disponible,-3.661528,40.425083
1592,143 - Diego de León - General Pardiñas,"Calle de Diego de León, 54",3,20,23,Fuera de servicio,Disponible,-3.67808,40.434676
1593,187 - Alejandro González - Alcalá,Alcala-Ventas,10,13,23,Poca disponibilidad,Disponible,-3.663825,40.430133
1594,188 - Puente de Ventas,"Avenida de Daroca, 2",16,11,27,Poca disponibilidad,Disponible,-3.659029,40.431256
1595,189 - Virgen de la Alegría,Avenida donostiarra,1,22,23,Fuera de servicio,Disponible,-3.655492,40.435126
1596,190 - Velázquez - Diego de León,"Calle Velázquez, 91",15,8,23,Poca disponibilidad,Disponible,-3.683375,40.434305
1597,191 - Metro Diego de León,"Calle de Alfonso Heredia, 2",1,18,19,Fuera de servicio,Disponible,-3.674078,40.434569
1598,192 - Avda. de los Toreros - Fco. Silvela,"Avenida de los Toreros, 3",15,12,27,Poca disponibilidad,Disponible,-3.671468,40.431826
1599,193 - Plaza de las Ventas,"Avenida De los Toreros, 49",11,16,27,Poca disponibilidad,Disponible,-3.665555,40.432472
1600,194 - Intercambiador de Avenida de América,"Calle Francisco Silvela, 87",22,2,24,Disponible,Disponible,-3.677154,40.437264
1601,195 - Indalecio Hernández - Mataelpino,"Calle Mataelpino, 1",22,2,24,Disponible,Disponible,-3.675444,40.439222
1602,196 - Metro Prosperidad,"Calle Suero de Quiñones, 4",2,25,27,Fuera de servicio,Disponible,-3.675222,40.444224
1603,197 - Parque de Berlín,"Avenida de Concha Espina, 36",9,14,23,Poca disponibilidad,Disponible,-3.677916,40.451606
1604,198 - Metro Rubén Darío,"Paseo de las Castellana, 33",21,2,23,Disponible,Disponible,-3.6891,40.432
1605,"199 - Fernando el Católico, 61","Calle Fernando el Católico, 61",4,23,27,Fuera de servicio,Disponible,-3.714917,40.434361
1606,200 - Metro Quevedo,"Glorieta de Quevedo, 4",15,9,24,Poca disponibilidad,Disponible,-3.704579,40.433754
1607,201 - Metro Canal,"Calle José Abascal, 2",10,13,23,Poca disponibilidad,Disponible,-3.703833,40.438694
1608,202 - Parque de Santander,"Calle de Santander, 1",13,14,27,Poca disponibilidad,Disponible,-3.7083,40.4413
1609,203 - General Ampudia - San Francisco Sales,"Calle General de Ampudia, 2",17,7,24,Disponible,Disponible,-3.714472,40.44175
1610,204 - Doctor Santero - Bravo Murillo,"Calle Doctor Santero, 1",5,18,23,Fuera de servicio,Disponible,-3.70404,40.447649
1611,205 - Metro Estrecho,"Calle Navarra, 1",3,20,23,Fuera de servicio,Disponible,-3.703278,40.4535
1612,206 - Metro Tetuán,"Calle Marqués de Viana, 3",1,22,23,Fuera de servicio,Disponible,-3.698916,40.460747
1613,207 - Plaza de la Remonta,"Calle Azucenas, 2",0,19,19,Fuera de servicio,Disponible,-3.697335,40.463044
1614,208 - Intercambiador de Plaza de Castilla,"Paseo de la Castellana, 216",0,18,18,Fuera de servicio,Disponible,-3.689061,40.466281
1615,209 - Plaza de Castilla - Fundación Canal,"Plaza de Castilla, 9",1,22,23,Fuera de servicio,Disponible,-3.6887,40.4657
1616,210 - Calle de las Tres Cruces - Gran Vía,Calle de las Tres Cruces,23,4,27,Disponible,Disponible,-3.702716,40.419652
1617,211 - Desengaño - Valverde,"Calle de el Desengaño, 4",15,8,23,Poca disponibilidad,Disponible,-3.70239,40.42059
1618,212 - Metro Marqués de Vadillo,"Glorieta Marqués de Vadillo, 9",13,14,27,Poca disponibilidad,Disponible,-3.716591,40.398247
1619,213 - Glorieta de Cádiz,"Calle de Antonio López, 129",10,13,23,Poca disponibilidad,Disponible,-3.700225,40.388992
1620,214 - Condesa de Venadito - Albacete,"Calle Condesa de Venadito, 2",23,1,24,Disponible,Disponible,-3.656903,40.443432
1621,215 - Gutierre de Cetina - Ascao,"Calle Gutierre de Cetina, 77",7,16,23,Fuera de servicio,Disponible,-3.640809,40.429588
1622,216 - Plaza de Puerta del Ángel,"Plaza Puerta del Ángel, 3",4,23,27,Fuera de servicio,Disponible,-3.72897,40.4141
1623,217 - Hospital Universitario La Paz,"Calle Pedro Rico, 4",20,3,23,Disponible,Disponible,-3.689076,40.480884
1624,218 - Camino de los Vinateros A,"Camino de Vinateros, 28",6,17,23,Fuera de servicio,Disponible,-3.657297,40.410548
1625,219 - Camino de los Vinateros B,"Camino de los Vinateros, 108",7,11,18,Poca disponibilidad,Disponible,-3.646734,40.408359
1626,220 - Plaza del Encuentro,"Calle Arrollo de las Pilillas, 2",14,10,24,Poca disponibilidad,Disponible,-3.651384,40.406156
1627,221 - Metro Pavones,"Calle Hacienda de Pavones, 148",20,3,23,Disponible,Disponible,-3.634744,40.400492
1628,222 - Eugenio Caxes - Antonio López,"Calle Eugenio Caxes, 14",15,8,23,Poca disponibilidad,Disponible,-3.702679,40.391787
1629,223 - Ermita del Santo,"Paseo de la Ermita del Santo, 48",10,17,27,Poca disponibilidad,Disponible,-3.724576,40.406448
1630,224 - Parque de Caramuel,"Calle Caramuel, 51",3,24,27,Fuera de servicio,Disponible,-3.7287,40.409
1631,225 - Sierra Toledana - Doctor Lozano,"Calle Sierra Toledana, 33",10,14,24,Poca disponibilidad,Disponible,-3.660345,40.402506
1632,226 - Sierra Toledana - Camino de Valderribas,"Camino Valderribas, 94",0,23,23,Fuera de servicio,Disponible,-3.660777,40.399015
1633,227 - Arroyo del Olivar,"Calle Arrollo del Olivar, 3",0,24,24,Fuera de servicio,Disponible,-3.665936,40.39383
1634,228 - San Delfín - Antonio López,"Calle San Delfín, 10",0,18,18,Fuera de servicio,Disponible,-3.708043,40.394406
1635,229 - Centro Deportivo Municipal Concepción,"Calle José del Hierro, 6",0,23,23,Fuera de servicio,Disponible,-3.648651,40.436938
1636,230 - Carlota O´Neill - Agastia,"Calle Carlota O Neill, 30-32",2,22,24,Fuera de servicio,Disponible,-3.648825,40.443679
1637,231 - Derechos Humanos - Verdaguer y García,"Calle Derechos Humanos, 14",9,15,24,Poca disponibilidad,Disponible,-3.655719,40.439828
1638,232 - José María de Pereda - Alcalá,"Calle De José Maria Pereda, 1",15,12,27,Poca disponibilidad,Disponible,-3.648617,40.432766
1639,233 - El dragón de La Elipa,"Calle Marqués de Corbera, 12",12,12,24,Poca disponibilidad,Disponible,-3.655579,40.422952
1640,234 - Metro La Elipa,"Avenida Marques de Corbera, 52",8,16,24,Poca disponibilidad,Disponible,-3.651092,40.426128
1641,235 - Sodio - Embajadores,"Calle del Sodio, 1B",11,12,23,Poca disponibilidad,Disponible,-3.691076,40.389041
1642,236 - Paseo Imperial,"Paseo Imperial, 31",21,6,27,Disponible,Disponible,-3.717078,40.407579
1644,"238 - San Germán, 5","CalleSan Germán, 5",22,2,24,Disponible,Disponible,-3.693261,40.456182
1645,239 - Francos Rodríguez - José Calvo,"Calle de Francos Rodríguez, 62",3,20,23,Fuera de servicio,Disponible,-3.707833,40.456713
1646,240 - Brasilia - Parque Breogán,"Avenida De Brasilia, 9",4,19,23,Fuera de servicio,Disponible,-3.66096,40.43666
1647,241 - Camilo José Cela,"Calle Camilo José Cela, 27",2,21,23,Fuera de servicio,Disponible,-3.66779,40.4378
1648,242 - Metro Parque de las Avenidas,"Avenida De Bruselas, 56",14,9,23,Poca disponibilidad,Disponible,-3.662928,40.439513
1649,243 - Cartagena,"Calle Cartagena, 37",3,20,23,Fuera de servicio,Disponible,-3.67012,40.43503
1650,244 - Hospital Clínico San Carlos,"Calle Isaac Peral, 42",10,13,23,Poca disponibilidad,Disponible,-3.71757,40.44003
1651,245 - Galileo - Donoso Cortés,"Calle Galileo, 63",2,22,24,Fuera de servicio,Disponible,-3.710138,40.436364
1652,246 - Metro Iglesia,"Calle de Santa Engracia, 85-87",23,4,27,Disponible,Disponible,-3.699248,40.435958
1653,247 - Zurbano - José Abascal,"Calle de Zurbano, 90",18,5,23,Disponible,Disponible,-3.69281,40.43837
1654,248 - Sinesio Delgado - Cuatro Torres,"Calle de Sinesio Delgado, 2",22,5,27,Disponible,Disponible,-3.687997,40.474321
1655,249 - Castellana - Cuatro Torres,"Paseo de la Castellana, 298",23,1,24,Disponible,Disponible,-3.685319,40.479502
1656,250 - Serrano - CSIC,"Calle Serrano, 111",16,11,27,Poca disponibilidad,Disponible,-3.68581,40.440649
1657,251 - Santa Hortensia - Corazón de María,"Calle Santa Hortensia, 31",2,21,23,Fuera de servicio,Disponible,-3.66683,40.44421
1658,252 - Est. tren Chamartín - Clara Campoamor,"Calle Agustín de Foxá, 40",1,22,23,Fuera de servicio,Disponible,-3.683969,40.47174
1659,253 - Doctor Fleming - Estadio S. Bernabéu,"Calle del Doctor Fleming, 7",19,0,19,Disponible,Disponible,-3.68844,40.45546
1660,254 - Plaza del Perú,"Avenida De Pio XII, 3",6,17,23,Fuera de servicio,Disponible,-3.67656,40.461
1661,255 - General López Pozas - Apolonio Morales,"Calle General López pozas, 2",9,14,23,Poca disponibilidad,Disponible,-3.685292,40.46361
1662,256 - Reina Victoria - Beatriz de Bobadilla,"Calle Beatriz de Bobadilla, 4",4,19,23,Fuera de servicio,Disponible,-3.71383,40.44635
1663,257 - Ciudad Universitaria - INEF,"Avenida Juan Herrera, 1",22,1,23,Disponible,Disponible,-3.730527,40.438873
1664,258 - Metro Ciudad Universitaria A,"Ciudad Universitaria, 1",24,0,24,Disponible,Disponible,-3.726939,40.444311
1665,259 - Metro Ciudad Universitaria B,"Ciudad Universitaria, 2",19,0,19,Disponible,Disponible,-3.726752,40.442705
1666,260 - Ciudad Universitaria - Fac. de Biología,Facultad de Biología,20,4,24,Disponible,Disponible,-3.727295,40.448332
1667,261 - Ciudad Universitaria - Facultad Derecho,"Avenida Complutense, 21",23,0,23,Disponible,Disponible,-3.729676,40.450552
1951,384 - Metro Usera,"Calle Amparo Usera, 46",22,1,23,Disponible,Disponible,-3.706145,40.387075
1952,388 - Estación tren - Hospital 12 de Octubre,"Calle Doctor Tolosa Latour, 7",13,10,23,Poca disponibilidad,Disponible,-3.700415,40.37838
1953,385 - Estación de tren Orcasitas,"Calle Campotejar , 25",12,11,23,Poca disponibilidad,Disponible,-3.703887,40.367211
1954,"387 - Isabelita Usera, 44","Calle Isabelita Usera, 44",10,13,23,Poca disponibilidad,Disponible,-3.70774,40.382723
1955,383 - Metro San Fermín-Orcasur,"Avenida de la Perla, 35",20,3,23,Disponible,Disponible,-3.69397,40.370002
1956,"386 - Avenida de los Poblados, 130","Avenida de los Poblados, 130",11,12,23,Poca disponibilidad,Disponible,-3.713315,40.373474
1957,476 - Metro Avenida de la Paz,"Avenida Ramon y Cajal, 101",2,21,23,Fuera de servicio,Disponible,-3.662016,40.453493
1958,477 - Metro Ciudad Lineal,"Calle de los Misterios, 2",4,19,23,Fuera de servicio,Disponible,-3.638904,40.438278
1959,478 - José del Hierro - Misterios,Calle José del Hierro esquina con Arturo Soria,1,22,23,Fuera de servicio,Disponible,-3.641057,40.441521
1960,479 - Metro Arturo Soria,"Angel Muñoz, 1",15,12,27,Poca disponibilidad,Disponible,-3.655837,40.454784
1961,480 - Vicente Muzas - Arturo Soria,"Calle Vicente Muzas, 13",8,15,23,Poca disponibilidad,Disponible,-3.660443,40.459033
1962,481 - Diego Ayllón - Arturo Soria,"Diego Ayllon, 2",4,19,23,Fuera de servicio,Disponible,-3.652191,40.451179
1963,554 - Metro El Capricho,"Calle de Velero, 16 ,Comunidad de Madrid España",2,25,27,Fuera de servicio,Disponible,-3.5941,40.453
1964,"284 - Avenida de Burgos, 17","Avda. de Burgos, 17",8,15,23,Poca disponibilidad,Disponible,-3.67579,40.473594
1965,482 - Metro Pueblo Nuevo,"Campuzano, 1",3,20,23,Fuera de servicio,Disponible,-3.642339,40.435687
1966,483 - Marcelino Álvarez - Daroca,"Calle Marcelino Álvarez, 31",10,13,23,Poca disponibilidad,Disponible,-3.653432,40.429743
1967,484 - Metro García Noblejas,"Calle Luis Campos, 3",18,5,23,Disponible,Disponible,-3.632389,40.428931
1968,523 - Carretera de Canillas,"Calle carretera de canillas, 17",11,12,23,Poca disponibilidad,Disponible,-3.650893,40.46287
1969,285 - Santa María Magdalena - La Drácena,"Calle Santa María Magdalena, 15",19,4,23,Disponible,Disponible,-3.6706,40.4631
1970,286 - Plaza Duque de Pastrana,"Plaza Duque de Pastrana, 2",7,16,23,Fuera de servicio,Disponible,-3.6779,40.4679
1971,287 - Metro Bambú,"Calle de la Yuca, 1",12,11,23,Poca disponibilidad,Disponible,-3.6762,40.4765
1972,288 - Caídos de la División Azul,"Calle Caídos de la División Azul, 28",18,5,23,Disponible,Disponible,-3.6723,40.4664
1973,524 - Glorieta Luis Rosales,Glorieta de Luís Rosales (esquina con López De Hoyos),9,14,23,Poca disponibilidad,Disponible,-3.6543,40.4673
1974,460 - Fuente Carrantona - Doctor García Tapia,"Fuente Carrantona , 33",4,23,27,Fuera de servicio,Disponible,-3.631923,40.407022
1975,"455 - Luis de Hoyos Sainz,  198","Luis de Hoyos Sainz, 198",6,17,23,Fuera de servicio,Disponible,-3.629275,40.400094
1976,"456 - Encomienda de Palacios, 8","Encomienda de Palacios, 8",4,19,23,Fuera de servicio,Disponible,-3.6464,40.4005
1977,416 - Ramírez Tomé,"Calle Ramirez Tomé, 33",2,25,27,Fuera de servicio,Disponible,-3.645974,40.388756
1978,"417 - Romeo y Julieta, 12","Calle Romeo y Julieta, 12",10,17,27,Poca disponibilidad,Disponible,-3.662176,40.378738
1979,418 - Puerto de Arlabán - San Diego,"Calle Puerto de Arlabán, 83",3,24,27,Fuera de servicio,Disponible,-3.6675,40.3864
1980,496 - Cronos,"Calle Cronos, 57",26,1,27,Disponible,Disponible,-3.619433,40.438469
1981,501 - Metro Alsacia,"Calle Hermanos García Noblejas, 137",8,15,23,Poca disponibilidad,Disponible,-3.6242,40.4191
1982,498 - Metro Torre Arias,"Calle Alcalá, 546",12,15,27,Poca disponibilidad,Disponible,-3.617832,40.443134
1983,499 - Biblioteca Pública Municipal Canillejas,"Calle Alcala, 590",1,22,23,Fuera de servicio,Disponible,-3.6122,40.446656
1984,"500 - Aracne, 17","Calle Aracne, 17",2,25,27,Fuera de servicio,Disponible,-3.5895,40.445
1985,497 - Metro Suances,"Calle Alcalá, 506",22,1,23,Disponible,Disponible,-3.6274,40.4407
1986,265 - Puerto Serrano - Embajadores,"Calle Puerto Serrano, 1 enfrente del, 6",2,21,23,Fuera de servicio,Disponible,-3.688461,40.385412
1987,351 - Comandante Fontanes - General Ricardos,"Calle Comandante Fontanés, 1",5,18,23,Fuera de servicio,Disponible,-3.721121,40.395142
1988,350 - Ervigio - Amalarico,"Calle Ervigio, 22",9,14,23,Poca disponibilidad,Disponible,-3.7315,40.3947
1989,389 - Julio Merino - Pilarica,"Calle Julio Merino, 5",6,17,23,Fuera de servicio,Disponible,-3.7032,40.3831
1990,390 - Avena - Mijo,"Calle avena, 10",15,8,23,Poca disponibilidad,Disponible,-3.7159,40.3773
1991,"556 - Cantabria, 6","Avenida de Cantabria, 6",11,13,24,Poca disponibilidad,Disponible,-3.587722,40.454625
1992,555 - Parque del Capricho,"Paseo de la Alameda de Osuna, 48",13,14,27,Poca disponibilidad,Disponible,-3.598122,40.454768
1993,485 - Francisco Villaespesa - Ledesma,"Calle Francisco Villaespesa, 37",8,15,23,Poca disponibilidad,Disponible,-3.646463,40.429326
1994,570 - Uni. Autónoma Madrid - Facul. Medicina,"Calle Arzobispo Morcillo, 6",9,18,27,Poca disponibilidad,Disponible,-3.6938,40.4815
1995,295 - Hernani - Edgar Neville,"Calle Hernani, 59",23,0,23,Disponible,Disponible,-3.6972,40.4481
1996,296 - Costa Verde,"Calle de la Costa Verde, 25-23",8,15,23,Poca disponibilidad,Disponible,-3.696862,40.469477
1997,297 - Simancas - Pinos Alta,"Calle Simancas, 2",2,21,23,Fuera de servicio,Disponible,-3.695113,40.4655
1998,323 - Centro Deportivo Municipal Gallur,"Calle Gallur, 5",2,21,23,Fuera de servicio,Disponible,-3.7359,40.3984
1999,324 - Metro Lucero,"Calle de las Higueras, 49",17,6,23,Disponible,Disponible,-3.745096,40.404571
2000,"457 - Hacienda de Pavones, 148","Hacienda de Pavones, 148",5,18,23,Fuera de servicio,Disponible,-3.6419,40.4026
2001,432 - Maquinilla - Tranvía Blanco,"Calle de la Maquinilla, 8-10",17,7,24,Disponible,Disponible,-3.636484,40.380781
2002,298 - Marques de Viana - Bellver,"Calle Marqués de Viana, 85",0,19,19,Fuera de servicio,Disponible,-3.704478,40.463643
2003,437 - Metro Sierra de Guadalupe,"Calle Sierra de Guadalupe, 11",4,22,27,Fuera de servicio,Disponible,-3.623765,40.381352
2004,358 - Verdad,"Calle de la Verdad, 29",18,5,23,Disponible,Disponible,-3.71716,40.391787
2005,352 - Algorta  - General Ricardos,"Calle Algorta, 2",14,9,23,Poca disponibilidad,Disponible,-3.727452,40.391623
2006,492 - Metro La Almudena,"Fernando Gabriel, 2",1,23,24,Fuera de servicio,Disponible,-3.639499,40.424664
2007,322 - Ps. Jesuitas - Mercado Alto Extremadura,"Paseo de los Jesuitas, 69",2,25,27,Fuera de servicio,Disponible,-3.7351,40.408
2008,392 - Metro Almendrales,"Avenida Córdoba, enfrente, 21",21,2,23,Disponible,Disponible,-3.697856,40.38268
2009,"420 - Candilejas, 5","Calle Candilejas, 5",19,4,23,Disponible,Disponible,-3.663004,40.382636
2010,419 - Estación de tren de El Pozo,"Calle Puerto de Balbarán, 10",17,10,27,Poca disponibilidad,Disponible,-3.655868,40.376237
2011,439 - Cabeza Mesada - Parque de Valdeperdices,"Calle Cabeza de Mesada, 5",15,12,27,Poca disponibilidad,Disponible,-3.629413,40.376479
2012,398 - Orovilla - Felicidad,"Avenida de Orovilla, 53",23,4,27,Disponible,Disponible,-3.6895,40.3587
2013,569 - C. Deportivo Mpal. Vicente del Bosque,"Avenida Monforte de Lemos, 13",16,7,23,Poca disponibilidad,Disponible,-3.6965,40.4795
2014,571 - Melchor Fernández Almagro - Plaza Tuy,"Calle Melchor Fernandez Almagro, 80",16,7,23,Poca disponibilidad,Disponible,-3.710326,40.475648
2015,"304 - Valle de Mena, 5","Calle Valle de Mena, 5",2,21,23,Fuera de servicio,Disponible,-3.715272,40.469627
2017,268 - Metro Arganzuela-Planetario,"Calle del Cobre, 6",17,6,23,Disponible,Disponible,-3.689031,40.393383
2019,305 - Intercambiador de Príncipe Pío B,"Paseo de la Florida, 37",10,13,23,Poca disponibilidad,Disponible,-3.723178,40.422761
2020,306 - Centro Deportivo Mpal Fernando Martín,"Avenida Del Santo Ángel de la Guarda, 6",2,21,23,Fuera de servicio,Disponible,-3.712197,40.461796
2021,486 - Serrano Galvache - Arturo Soria,"Calle Serrano Galvache, 1",18,5,23,Disponible,Disponible,-3.667938,40.471382
2022,502 - Puertollano - Veinticinco de Septiembre,"Calle de Puertollano, 4-2",18,5,23,Disponible,Disponible,-3.623737,40.442516
2023,462 - Gallegos - Lavadero Viejo,"Calle Gallegos, 27",16,11,27,Poca disponibilidad,Disponible,-3.610275,40.402404
2024,421 - Arroyo del Olivar - Buenos Aires,"Calle Arroyo del Olivar, 63",2,22,24,Fuera de servicio,Disponible,-3.653269,40.388435
2025,487 - Manuel Uribe - Arturo Soria,"Calle Manuel Uribe, 1",9,14,23,Poca disponibilidad,Disponible,-3.665034,40.464341
2026,"422 - Travesia de Palomeras, 7","Travesia de Palomeras, 7",1,23,24,Fuera de servicio,Disponible,-3.670518,40.39017
2027,423 - Estación de tren Asamblea de Madrid,"Avenida de Entrevias, 56",11,13,24,Poca disponibilidad,Disponible,-3.66855,40.381388
2028,"424 - Camino de Valderribas, 47","Camino de Valderribas, 47",17,7,24,Disponible,Disponible,-3.663958,40.400223
2029,425 - Ramón Perez Ayala - Pque. Cerro Tío Pío,"Calle Ramón Pérez de Ayala, 45",5,19,24,Fuera de servicio,Disponible,-3.65381,40.400035
2030,426 - Humanes - Benjamín Palencia,"Calle Humanes, 3",18,6,24,Disponible,Disponible,-3.649327,40.395212
2031,"427 - Andaluces, 2","Calle de los Andaluces, 2",13,11,24,Poca disponibilidad,Disponible,-3.641483,40.391424
2032,428 - Estadio de Vallecas,"Avenida La Albufera, 136",12,12,24,Poca disponibilidad,Disponible,-3.6571,40.3919
2033,"393 - Manuel Noya , 29","Calle Manuel Noya, 29",18,6,24,Disponible,Disponible,-3.711798,40.385379
2034,489 - Serrano Galvache - Yerma,"Serrano Galvache, 56",17,7,24,Disponible,Disponible,-3.671445,40.476753
2035,490 - Hnos.García Noblejas-FcoLargo Caballero,Calle Hermanos García Nobleza (esquina Plaza del Reloj Solar),8,16,24,Poca disponibilidad,Disponible,-3.628881,40.424275
2036,"488 - Ricardo Ortiz, 33","Calle Ricardo Ortiz, 33",6,18,24,Fuera de servicio,Disponible,-3.657964,40.42657
2037,525 - Metro Manoteras,"Calle Bacares, 20",10,14,24,Poca disponibilidad,Disponible,-3.66269,40.476755
2038,504 - Biblioteca Pública Municipal San Blas,"Calle de San Roman del Valle, 20",8,16,24,Poca disponibilidad,Disponible,-3.623467,40.423099
2039,503 - Zaldívar - Valdecanillas,"Calle Zaldivar, 19",21,3,24,Disponible,Disponible,-3.626504,40.43209
2040,404 - Junta Municipal Distrito de Villaverde,"Calle Arroyo Bueno, 53",4,23,27,Fuera de servicio,Disponible,-3.710985,40.349111
2041,"353 - Mercedes Arteaga, 21","Calle Mercedes Arteaga, 21",12,12,24,Poca disponibilidad,Disponible,-3.722218,40.392516
2042,355 - Intercambiador de Plaza Elíptica,"Calle de la Vía, 56",11,13,24,Poca disponibilidad,Disponible,-3.718234,40.385464
2043,326 - Metro Alto de Extremadura,"Calle Francisco Tejada, 1",13,11,24,Poca disponibilidad,Disponible,-3.739616,40.40938
2044,"327 - El Greco, 27 - C. Cultural El Greco","Calle El Greco, 27",4,20,24,Fuera de servicio,Disponible,-3.747262,40.407412
2045,458 - Metro Vinateros,"Calle del Arroyo Belincoso, 26",8,16,24,Poca disponibilidad,Disponible,-3.652566,40.409911
2046,459 - Moratalaz,"Avenida Moratalaz, 33",10,14,24,Poca disponibilidad,Disponible,-3.660003,40.407506
2047,461 - Plaza Corregidor Ldo. Antonio de Mena,"Corregidor licenciado Antonio de Mena, sn",11,13,24,Poca disponibilidad,Disponible,-3.6408,40.4099
2048,356 - Portalegre - Tinamús,"Calle Portalegre, 9",22,2,24,Disponible,Disponible,-3.723648,40.389377
2049,572 - Junta Mpal. Dtto. Fuencarral - El Pardo,"Avenida Monforte de Lemos, 123",14,10,24,Poca disponibilidad,Disponible,-3.709973,40.478104
2050,573 - Melchor Fernández Almagro - Villa Marín,"Calle Melchor Fernandez Almagro, 16",8,16,24,Poca disponibilidad,Disponible,-3.699626,40.477728
2051,575 - Metro Barrio del Pilar,"Ginzo de Limia, 36",10,14,24,Poca disponibilidad,Disponible,-3.703526,40.47817
2052,574 - Chantada,"Calle Chantada, 14",8,16,24,Poca disponibilidad,Disponible,-3.710678,40.472695
2053,440 - Metro Villa de Vallecas,"Paseo de Federico García Lorca, 2",15,3,18,Disponible,Disponible,-3.621447,40.379503
2054,507 - Seis - Sexta,Calle Seis (esquina con Avenida Quinta),2,22,24,Fuera de servicio,Disponible,-3.596503,40.44845
2055,299 - Rosario Pino - Joan Maragall,"Calle Rosario Pino, 17",5,19,24,Fuera de servicio,Disponible,-3.691932,40.46205
2056,300 - Capitan Blanco Argibay - Alfalfa,"Calle Capitan Blanco Argibay, 112",1,23,24,Fuera de servicio,Disponible,-3.703188,40.466743
2057,301 - Muller - Capitan Blanco Argibay,"Calle Muller, 34",1,23,24,Fuera de servicio,Disponible,-3.698376,40.465182
2059,"396 - Gran Avenida, 27","Gran Avenida, 27",16,8,24,Poca disponibilidad,Disponible,-3.707606,40.369977
2060,"394 - Periana, 24","Calle Periana, 24",0,24,24,Fuera de servicio,Disponible,-3.687658,40.366723
2061,397 - Centro Deportivo Municipal Orcasur,"Calle Moreja, 30",21,3,24,Disponible,Disponible,-3.69838,40.368093
2062,399 - Bohemios - Gigantes y Cabezudos,"Calle Bohemios, 1",10,14,24,Poca disponibilidad,Disponible,-3.693901,40.356536
2063,430 - Torremolinos - Rafael Alberti,"Calle Torremolinos, 1",9,15,24,Poca disponibilidad,Disponible,-3.64179,40.385009
2064,"269 - Ariel, 7 - Parque Enrique Tierno Galván","Calle Ariel, 11",10,14,24,Poca disponibilidad,Disponible,-3.679702,40.393024
2065,491 - Esteban Collantes - José Arcones Gil,"Calle Esteban Collantes, 63",16,8,24,Poca disponibilidad,Disponible,-3.637663,40.432883
2066,527 - Velacho Alto - Trinquete,"Calle Velacho Alto, 4-16",6,18,24,Fuera de servicio,Disponible,-3.659269,40.472503
2067,526 - Plaza del Liceo,Plaza del Liceo (esquina con Calle Silvano),6,18,24,Fuera de servicio,Disponible,-3.644419,40.457544
2068,"431 - Puerto Canfranc, 18","Calle Estación de Canfrac, 18",13,11,24,Poca disponibilidad,Disponible,-3.6634,40.3969
2069,429 - Carlos M. Alvarez - Javier de Miguel,"Calle Carlos Martín Álvarez, 38",9,14,23,Poca disponibilidad,Disponible,-3.6635,40.3895
2070,357 - Sorbe - Baleares,"Calle del Sorbe , 20",9,15,24,Poca disponibilidad,Disponible,-3.713209,40.38987
2071,270 - Teresa L. Valcárcel - Tte. Cnel. Noreña,Calle Teresa López Valcarcel (esquina calle Teniente Coronel Noreña),9,15,24,Poca disponibilidad,Disponible,-3.693288,40.388629
2072,493 - Arturo Soria - San Luis,Calle Arturo Soria (esquina con calle Jazmín),10,13,23,Poca disponibilidad,Disponible,-3.668417,40.476367
2073,"433 - Villalobos, 28","Calle Villalobos, 28",14,10,24,Poca disponibilidad,Disponible,-3.65076,40.381617
2074,436 - Campus Sur UPM,"Calle Alan Turing, 2",17,6,23,Disponible,Disponible,-3.627137,40.390167
2075,434 - Charleroi - Cocherón de la Villa,"Calle Charleroi, 1",10,14,24,Poca disponibilidad,Disponible,-3.632194,40.381917
2076,506 - Albarracín - Julián Camarillo,"Calle Albarracin, sn",23,1,24,Disponible,Disponible,-3.632516,40.433973
2077,"505 - Castillo de Uclés, 37","Calle Castillo de Ucles, 37",16,8,24,Poca disponibilidad,Disponible,-3.623066,40.431525
2078,435 - San Claudio,"Calle San Claudio, 150",11,13,24,Poca disponibilidad,Disponible,-3.63954,40.389029
2080,302 - Ps. Dirección B - Pque A. Rguez Sahagún,"Paseo de la Dirección, 330, (enfrente)",1,23,24,Fuera de servicio,Disponible,-3.703955,40.470245
2081,"463 - Casalarreina, 18","Calle Casalarreina, 18",11,13,24,Poca disponibilidad,Disponible,-3.612319,40.409391
2082,464 - Univ. Rey Juan Carlos - Campus Madrid,"Avenida de Daroca, 321",13,11,24,Poca disponibilidad,Disponible,-3.612834,40.40634
2083,400 - Metro Ciudad de los Ángeles,"Paseo de los Gigantes y Cabezudos, 4",13,11,24,Poca disponibilidad,Disponible,-3.693997,40.360647
2084,307 - Metro Valdezarza,"Calle San Restituto, 74",9,15,24,Poca disponibilidad,Disponible,-3.71693,40.46588
2085,303 - Ps. Dirección A - Pque A. Rguez Sahagún,"Paseo de la Dirección, 161",14,10,24,Poca disponibilidad,Disponible,-3.708085,40.467789
2086,"576 - El Ferrol, 18","Avenida El Ferrol, 18",4,20,24,Fuera de servicio,Disponible,-3.705105,40.474313
2087,577 - Monforte de Lemos - Plaza de Mondariz,"Calle Aurora boreal, 19",12,12,24,Poca disponibilidad,Disponible,-3.705669,40.479
2088,309 - Ofelia Nieto - Villaamil,"Calle Ofelia Nieto, 75",0,24,24,Fuera de servicio,Disponible,-3.708734,40.462051
2089,308 - María Auxiliadora - Francos Rodríguez,"Calle María Auxiliadora, 1",2,22,24,Fuera de servicio,Disponible,-3.713461,40.457729
2090,510 - Metro Avenida de Guadalajara,"Avenida de Guadalajara, 101",12,12,24,Poca disponibilidad,Disponible,-3.613462,40.42219
2091,511 - Aquitania 31,"Calle Aquitania, 31",3,24,27,Fuera de servicio,Disponible,-3.617267,40.419123
2092,512 - Semilla - Aparejadores,"Calle de los Aparejadores, 24",9,15,24,Poca disponibilidad,Disponible,-3.61537,40.426679
2093,513 - Centro Deportivo Mpal. Pepu Hernández,"Avenida de Niza, 9",10,17,27,Poca disponibilidad,Disponible,-3.606454,40.427121
2094,514 - María Sevilla Diago,"Calle Maria Sevilla Diago, 5",3,21,24,Fuera de servicio,Disponible,-3.610951,40.43283
2095,"515 - Avenida de Hellin, 13","Avenida de Hellin, 13",9,15,24,Poca disponibilidad,Disponible,-3.6158,40.430917
2096,359 - El Toboso - Zaida,"Calle de El Toboso, 115",11,12,23,Poca disponibilidad,Disponible,-3.73634,40.39299
2097,360 - Ntra. Sra. Fátima - Ntra. Sra. de Luz,"Avenida Nuestra Señora de Fatima, 34",7,16,23,Fuera de servicio,Disponible,-3.747088,40.384015
2098,361 - Metro Pan Bendito,"Avenida de Abrantes, 106",16,7,23,Poca disponibilidad,Disponible,-3.732667,40.377347
2099,441 - Estación de tren de Santa Eugenia,"Avenida Santa Eugenia,1",14,10,24,Poca disponibilidad,Disponible,-3.609482,40.386008
2100,442 - Santa Eugenia - Zazuar,"Avenida de Santa Eugenia con Calle sauzal, 1",10,17,27,Poca disponibilidad,Disponible,-3.60463,40.383059
2101,"443 - Fuentespina, 33","Calle Fuentespina, 33",10,14,24,Poca disponibilidad,Disponible,-3.607248,40.379415
2102,"362 - Hilario Herranz Establos, 36","Calle Hilario Herránz Establos , 36",18,9,27,Poca disponibilidad,Disponible,-3.726638,40.372839
2103,557 - Metro Alameda de Osuna,"Calle Rioja, 13",8,16,24,Poca disponibilidad,Disponible,-3.588151,40.457467
2104,290 - Francisco Suárez - Paseo de La Habana,"Calle Francisco Suárez, 28",8,15,23,Poca disponibilidad,Disponible,-3.679944,40.464378
2105,"529 - Lopez de Hoyos , 478","Calle López de Hoyos, 478",12,11,23,Poca disponibilidad,Disponible,-3.649843,40.47175
2106,530 - Metro Mar de Cristal,"Calle de los Emigrantes, 15",21,6,27,Disponible,Disponible,-3.637883,40.468575
2107,531 - Metro Parque de Santa María,"Calle de Santa Virgilia, 6",0,23,23,Fuera de servicio,Disponible,-3.645074,40.476878
2109,"533 - San Luis, 23","Avenida de San Luis, 23",3,20,23,Fuera de servicio,Disponible,-3.655115,40.471487
2110,106A - Plaza de Colón A,"Calle Serrano, 32",13,6,19,Poca disponibilidad,Disponible,-3.687807,40.424924
2111,582 - Isla Graciosa - Isla de Java,"Calle de la Isla Graciosa, 2",8,16,24,Poca disponibilidad,Disponible,-3.686266,40.492622
2112,583 - Ángel Múgica - Marcos de Orueta,"Calle de Angel Mugica, 3",19,5,24,Disponible,Disponible,-3.68529,40.484683
2113,584 - Metro Montecarmelo,"Avenida Monasterio de Silos, 63A",1,23,24,Fuera de servicio,Disponible,-3.696033,40.50501
2114,585 - Metro Fuencarral,"Calle Molins de Rey, 8",3,21,24,Fuera de servicio,Disponible,-3.693748,40.495466
2115,586 - Caldas Estrach - San Cugat del Vallés,"Calle Caldas de Estrach, 14",2,21,23,Fuera de servicio,Disponible,-3.697472,40.496392
2116,"534 - Mesena, 102","Calle Mesena, 102",5,19,24,Fuera de servicio,Disponible,-3.663406,40.467724
2117,273 - Delicias - General Lacy,"Calle de las Delicias, 41",7,12,19,Poca disponibilidad,Disponible,-3.690918,40.403819
2118,587 - Metro Paco de Lucía,"Calle Costa Brava, 14",26,1,27,Disponible,Disponible,-3.708657,40.498924
2119,588 - Campo Calatrava - Rda Ingenioso Hidalgo,"Av. del Campo de Calatrava, 17",2,25,27,Fuera de servicio,Disponible,-3.691123,40.500522
2120,589 - Monast. Silos - Monast. Montesclaros,"Avenida Monasterio de Silos, 37",24,0,24,Disponible,Disponible,-3.702903,40.503405
2121,535 - Metro Canillas,"Calle Ramón Power, 2",1,26,27,Fuera de servicio,Disponible,-3.634999,40.463575
2122,"328 - Cebreros, 97","Calle de Cebreros, 97",3,20,23,Fuera de servicio,Disponible,-3.752192,40.403238
2123,329 - Metro Laguna,"Calle Alhambra, 56",12,11,23,Poca disponibilidad,Disponible,-3.744452,40.398816
2124,330 - Duquesa de Parcent - Marcelino Castillo,"Calle Duquesa de Parcent, 14",11,12,23,Poca disponibilidad,Disponible,-3.744728,40.395002
2125,331 - Valmojado,"Calle Valmojado, 33",11,13,24,Poca disponibilidad,Disponible,-3.757572,40.396496
2126,"332 - Los Yébenes, 159","Calle de los Yébenes, 159",0,23,23,Fuera de servicio,Disponible,-3.751817,40.393028
2127,363 - Metro Oporto,"Avenida de Oporto, 102",20,3,23,Disponible,Disponible,-3.729873,40.387451
2128,364 - Metro Opañel,"Avenida de Oporto, 34",13,10,23,Poca disponibilidad,Disponible,-3.723781,40.385507
2129,536 - Boj,"Calle de Boj, 4",8,15,23,Poca disponibilidad,Disponible,-3.618082,40.45602
2130,537 - Plaza López de la Plata,"Avenida de Machupichu, 23",16,11,27,Poca disponibilidad,Disponible,-3.625794,40.458415
2131,"538 - Haendel, 8","Calle de Haendel, 8",17,10,27,Poca disponibilidad,Disponible,-3.625321,40.462751
2132,333 - Illescas - Camarena,"Calle Illescas, 104",0,23,23,Fuera de servicio,Disponible,-3.756232,40.392175
2133,365 - Palacio Vistalegre Arena,"Avenida Plaza de Toros, 3",15,8,23,Poca disponibilidad,Disponible,-3.737259,40.385372
2134,366 - Metro Carabanchel,"Paseo de Marcelino Camacho, 53",23,0,23,Disponible,Disponible,-3.744521,40.387737
2135,291 - Plaza José María Soler,"Avenida Alfonso XIII, 113",16,7,23,Poca disponibilidad,Disponible,-3.667903,40.458665
2136,292 - Centro Deportivo Municipal Pradillo,"Calle Pradillo, 33",7,16,23,Fuera de servicio,Disponible,-3.671794,40.449041
2137,494 - Metro Pinar de Chamartín,"Arturo Soria, 332",7,16,23,Fuera de servicio,Disponible,-3.666529,40.480694
2138,516 - Juan Ignacio Luca Tena - Quinta Molinos,"Calle Juan Ignacio Luca de Tena, 13",21,6,27,Disponible,Disponible,-3.631103,40.447968
2139,368 - Eugenia de Montijo,"Calle Eugenia de Montijo, 57",14,1,15,Disponible,Disponible,-3.747061,40.379102
2140,369 - Junta Municipal Distrito de Carabanchel,"Plaza De la Parroquia, 19",4,19,23,Fuera de servicio,Disponible,-3.741583,40.380245
2141,370 - Avefría - Plaza de Tarifa,"Calle de Avefria, 26",1,22,23,Fuera de servicio,Disponible,-3.730802,40.383869
2142,590 - Metro Arroyofresno,"Calle Maria de Maeztu, 50",1,26,27,Fuera de servicio,Disponible,-3.727572,40.49093
2143,517 - San Mariano - Circe,"Calle de San Mariano, 52-60",27,0,27,Disponible,Disponible,-3.611905,40.441753
2144,518 - Tampico - Plaza Barbados,"Calle Tampico, 71",8,15,23,Poca disponibilidad,Disponible,-3.635345,40.444569
2145,"371 - Joaquin Turina, 49","Calle Joaquin Turina, 49",14,13,27,Poca disponibilidad,Disponible,-3.76182,40.372458
2146,"372 - Lonja de la Seda, 33","Calle Lonja de la Seda, 33",12,11,23,Poca disponibilidad,Disponible,-3.761583,40.366122
2147,373 - Metro La Peseta,"Calle Salvador Allende, 28",11,12,23,Poca disponibilidad,Disponible,-3.75787,40.362778
2148,374 - Dinero - La Peseta,"Calle del Dinero, 38",6,21,27,Fuera de servicio,Disponible,-3.750147,40.362571
2149,"375 - Calderilla, 4","Calle Calderilla, 4",19,8,27,Disponible,Disponible,-3.73866,40.36515
2150,591 - Metro Mirasierra,"Av.Ventisquero de la Condesa, 37",15,4,19,Disponible,Disponible,-3.716229,40.491082
2151,592 - Estación de tren de Pitis,"Calle de Gloria Fuertes, 180",8,19,27,Fuera de servicio,Disponible,-3.724953,40.495697
2152,376 - Metro Carpetana,"Calle del Pinzón, 111",7,17,24,Fuera de servicio,Disponible,-3.740544,40.392292
2153,377 - Metro Abrantes,"Avenida De Abrantes, 55",15,8,23,Poca disponibilidad,Disponible,-3.727836,40.380918
2154,539 - Mota del Cuervo,"Calle Mota del Cuervo, 72",13,11,24,Poca disponibilidad,Disponible,-3.631357,40.464876
2155,334 - Metro Campamento,"Calle Seseña, 93",10,14,24,Poca disponibilidad,Disponible,-3.768156,40.394973
2156,"335 - Cardaño, 10","Plaza Patricio, 5",18,6,24,Disponible,Disponible,-3.770575,40.396598
2157,"519 - Troya, 11","Calle Troya, 11",16,8,24,Poca disponibilidad,Disponible,-3.611915,40.436996
2158,"378 - Eugenia de Montijo, 83","Calle Eugenia de Montijo, 83",11,13,24,Poca disponibilidad,Disponible,-3.750973,40.375623
2159,379 - Antonia Rodríguez Sacristán - Valeriana,"Calle Antonia Rodriguez Sacristan, 4",20,4,24,Disponible,Disponible,-3.747657,40.373138
2160,495 - Caleruega,"Calle Caleruega, 14",13,11,24,Poca disponibilidad,Disponible,-3.670588,40.478746
2161,593 - Metro Avenida de la Ilustración,"Calle Islas Cies, 27",15,9,24,Poca disponibilidad,Disponible,-3.718691,40.480274
2162,"594 - Calle Pedro Rico, 49","Calle Pedro Rico, 49",5,19,24,Fuera de servicio,Disponible,-3.703918,40.48194
2163,595 - Betanzos - Fermín Caballero,"Avenida de Betanzos, 68",17,7,24,Disponible,Disponible,-3.713221,40.481788
2164,596 - Metro Lacoma,"Calle Ramon Gomez de la Serna, 37",7,17,24,Fuera de servicio,Disponible,-3.723826,40.484328
2165,540 - Estación de tren Fuente de la Mora,"Calle Dulce Chacón, S/N",18,6,24,Disponible,Disponible,-3.663648,40.48456
2166,"336 - Calle Oliva de Plasencia, 1","Calle Oliva de Plasencia, 1",4,20,24,Fuera de servicio,Disponible,-3.779152,40.378501
2167,337 - Metro Aluche,"Calle Valmojado, 295",10,8,18,Poca disponibilidad,Disponible,-3.760489,40.386141
2168,338 - Guareña - Luis Chamizo,"Calle Guareña, 22",10,8,18,Poca disponibilidad,Disponible,-3.765339,40.386362
2169,339 - Estación de tren Las Águilas,"Avenida de las Aguilas , 110",19,5,24,Disponible,Disponible,-3.78062,40.381326
2170,"597 - Foresta, 8","Calle de la Foresta,8",8,15,23,Poca disponibilidad,Disponible,-3.667777,40.498533
2172,599 - Instalación Deportiva La Cabrera,"Calle La Cabrera, sn",13,14,27,Poca disponibilidad,Disponible,-3.719204,40.472233
2173,343 - Metro Aviación Española,"Calle Fuente de Lima, 10",10,13,23,Poca disponibilidad,Disponible,-3.783393,40.38359
2174,"344 - Ocaña, 103","Calle Ocaña, 103",8,15,23,Poca disponibilidad,Disponible,-3.75292,40.385863
2175,"313 - Juan XXIII, 24","Paseo de Juan XXIII, 24",26,1,27,Disponible,Disponible,-3.716936,40.448084
2176,314 - Av. Valladolid - Parque de la Bombilla,"Avenida Valladolid, 47D",26,1,27,Disponible,Disponible,-3.73068,40.42966
2177,315 - Caroli,"Calle de Caroli, 10",8,15,23,Poca disponibilidad,Disponible,-3.784627,40.45862
2178,316 - C. Deportivo Mpal. Ciudad De Los Poetas,Calle Antonio Machado,5,14,19,Fuera de servicio,Disponible,-3.719954,40.464397
2179,"317 - Antonio Machado, 30","Calle Antonio Machado, 30",1,26,27,Fuera de servicio,Disponible,-3.719217,40.46827
2180,345 - Fuente del Tiro - Avd. de las Águilas,"Calle Fuente del Tiro, 72",8,16,24,Poca disponibilidad,Disponible,-3.7798,40.383088
2182,449 - Metro Congosto,"Calle del Pico Chilegua, 3",14,10,24,Poca disponibilidad,Disponible,-3.618691,40.372867
2183,"450 - Camino de las Hormigueras, 161","Calle Camino de las Hormigueras, 161",13,11,24,Poca disponibilidad,Disponible,-3.637076,40.376255
2184,294 - Edificio Torres Blancas,"Calle Clara del Rey, 17",16,8,24,Poca disponibilidad,Disponible,-3.672339,40.440944
2185,604 - Metro Las Tablas,"Avenida del Camino de Santiago, 4",8,15,23,Poca disponibilidad,Disponible,-3.669552,40.509104
2186,348 - José de Cadalso - Rafael Finat,"Calle José de cadalso, 62",8,19,27,Fuera de servicio,Disponible,-3.770248,40.379591
2187,438 - Biblioteca Pública Luis Martín Santos,"Calle Enrique Garcia Alvarez, 5",15,12,27,Poca disponibilidad,Disponible,-3.614061,40.380448
2188,"451 -  La Granja de San Ildefonso, 14","Calle Granja de San Idelfonso, 14",15,12,27,Poca disponibilidad,Disponible,-3.622831,40.368134
2189,"452 - Las Suertes, 15","Avenida de Las Suertes, 15",3,20,23,Fuera de servicio,Disponible,-3.607854,40.371361
2190,453 - Metro La Gavia,"Avenida del Ensanche de Vallecas, 9",14,13,27,Poca disponibilidad,Disponible,-3.61253,40.37044
2191,454 - Gran Vía del Sureste - Las Suertes,"Calle Gran Via del Sureste, 22",9,18,27,Poca disponibilidad,Disponible,-3.589704,40.36316
2205,267 - Paseo de la Chopera - Fernando Poo,"Paseo de la Chopera, 31 ,Comunidad de Madrid España",7,16,23,Fuera de servicio,Disponible,-3.7004,40.395
2207,391 - Junta Municipal Distrito de Usera,"Calle Rafaela Ybarra, 22,Comunidad de Madrid España",19,4,23,Disponible,Disponible,-3.711296,40.381703
2214,580 - Metro Herrera Oria,"c/ Ginzo de Limia, 47",3,20,23,Fuera de servicio,Disponible,-3.706904,40.48337
2224,150 - Castellana - Hermanos Pinzón,"Paseo de la castellana, 124",19,4,23,Disponible,Disponible,-3.6908,40.4491
2225,157 - Plaza de Cuzco,"Paseo de la Castellana, 164 ,Comunidad de Madrid España",16,7,23,Poca disponibilidad,Disponible,-3.689415,40.459137
2226,"395 - Guetaria, 84B","Calle Guetaria, 84B",20,4,23,Disponible,Disponible,-3.715691,40.369168
2233,548 - Eduardo Mazón - Guadalajara,"Calle Eduardo Mazón, 1",15,8,23,Poca disponibilidad,Disponible,-3.615416,40.452148
2234,293 - Santa Rita - Clara del Rey,"Calle Santa Rita, 1",1,22,23,Fuera de servicio,Disponible,-3.668288,40.445793
2235,520 - Niza - Plaza de Grecia,"Av/ de Niza, 67",8,15,23,Poca disponibilidad,Disponible,-3.608116,40.434281
2236,509 - Amposta - Arcos de Jalón,Amposta s/n (esquina Arcos de Jalón),15,8,23,Poca disponibilidad,Disponible,-3.61865,40.42219
2237,558 - Biblioteca Pública Mpal. Gloria Fuertes,CalleBahía de Cádiz (cruce con Avenida Logroño),10,13,23,Poca disponibilidad,Disponible,-3.593712,40.461137
2238,561 - Plaza Nuestra Señora de Loreto,Calle Cristo del Gran Poder (cruce con calle Alas),22,1,23,Disponible,Disponible,-3.585751,40.472048
2239,562 - Tomillar - Tintín y Milú,"Calle Tomillar, 18",9,18,27,Poca disponibilidad,Disponible,-3.584415,40.463099
2240,560 - Playa de Zarauz - Playa de la Caleta,Calle playa de Zarauz (esquina con Playa de Caleta),18,5,23,Disponible,Disponible,-3.590685,40.47314
2241,568 - IFEMA A,"Avenida del Partenón, 6",13,14,27,Poca disponibilidad,Disponible,-3.617834,40.46328
2243,"405 - Paseo Alberto Palacios, 42","Paseo Alberto Palacios, 42",12,11,23,Poca disponibilidad,Disponible,-3.712904,40.344926
2244,401 - Estación de tren de Villaverde Bajo,"Calle Eduardo Maristany, 7",18,9,27,Poca disponibilidad,Disponible,-3.683127,40.353285
2245,406 - La Nave de Madrid,"Calle Cifuentes, 5",17,6,23,Disponible,Disponible,-3.696082,40.3486
2246,"403 - Auñón, 16","Calle Auñón, 16",5,18,23,Fuera de servicio,Disponible,-3.677524,40.350494
2247,280 - Ps de los Melancólicos - San Epifanio,"Paseo de los Melancólicos, 73",18,5,23,Disponible,Disponible,-3.718569,40.401782
2248,367 - Metro San Francisco,"Calle Albox, 35",10,13,23,Poca disponibilidad,Disponible,-3.73984,40.373972
2249,325 - Ps. Jesuitas - Pza. Cerro Bermejo,"Paseo de los Jesuitas, 4",11,12,23,Poca disponibilidad,Disponible,-3.730554,40.410692
2250,578 - Sierra de Atapuerca - Viloria de Rioja,"Calle Sierra de Atapuerca, 19",3,20,23,Fuera de servicio,Disponible,-3.670425,40.50293
2251,446 - C. Deportivo Mpal. Miguel Guillén Prim,"Calle Puerto de Porzuna, 34",21,2,23,Disponible,Disponible,-3.62363,40.373826
2252,"382 -Parque Eugenia de Montijo, 2","Parque Eugenia de Montijo, 2",15,9,24,Poca disponibilidad,Disponible,-3.754582,40.37835
2254,410 - Est. de tren de S. Cristóbal Industrial,Calle transversal sexta (enfrente del colegio Villamadrid),9,15,24,Poca disponibilidad,Disponible,-3.699266,40.332546
2255,319 - Valdesangil,"Calle Valdesangil, 34",12,12,24,Poca disponibilidad,Disponible,-3.716673,40.468422
2256,579 - Maria Tubau - Isabel Colbrand,"Calle María Tubau, 3",20,4,24,Disponible,Disponible,-3.671704,40.513992
2257,602 - Monasterio Sobrado - Monasterio Silos,"Calle del Monasterio de Sobrado, 6",9,15,24,Poca disponibilidad,Disponible,-3.692837,40.509323
2258,600 - Centro Deportivo Municipal La Masó,Calle Ubeda esquina Plaza Virgen de la capilla,1,23,24,Fuera de servicio,Disponible,-3.714957,40.482551
2259,566 - Avenida de Logroño,"Avenida de Logroño, 112",18,6,24,Disponible,Disponible,-3.581503,40.470347
2260,565 - Metro Barajas,"Calle Playa de Riazor, 65",13,11,24,Poca disponibilidad,Disponible,-3.583887,40.475636
2261,467 - Univ. Rey Juan Carlos - Facultad  CJS,"Calle Villardondiego ,32",6,18,24,Fuera de servicio,Disponible,-3.608489,40.406236
2262,469 - C. Deportivo Mpal Faustina Valladolid,"Ladera de los Almendros, 6",14,10,24,Poca disponibilidad,Disponible,-3.62299,40.40343
2263,470 - Avenida Real - Galeote,"Avenida Real, 3",8,10,18,Poca disponibilidad,Disponible,-3.606367,40.402152
2264,471 - Molino Viejo - Minerva,"Calle Molino Viejo frente , 14",0,18,18,Fuera de servicio,Disponible,-3.60666,40.396301
2265,271 - Amaltea-Meneses,"Calle Amaltea, 1",16,8,24,Poca disponibilidad,Disponible,-3.68317,40.394706
2266,466 - Villablanca - Vereda del Pinar,"Calle Villablanca, 7",15,8,23,Poca disponibilidad,Disponible,-3.607833,40.408947
2267,"275 - Juan Antonio Vallejo-Nájera Botas, 25","Paseo Juan Antonio Vallejo-Nájera Botas, 25",8,15,23,Poca disponibilidad,Disponible,-3.708212,40.402054
2268,475 - Aurora Boreal - Minerva,"Avenida de la Aurora Boreal, 19",4,19,23,Fuera de servicio,Disponible,-3.603668,40.399236
2269,274 - Estación Sur Méndez Álvaro A,"Calle Méndez Álvaro, 73",19,4,23,Disponible,Disponible,-3.681343,40.396758
2270,605 - Nuria - Peña Sirio,"Calle Nuria,24",15,9,24,Poca disponibilidad,Disponible,-3.704883,40.491644
2271,522 - Metro Estadio Metropolitano,Avenida Arcentales (frente Estadio Metropolitano),8,16,24,Poca disponibilidad,Disponible,-3.600975,40.433333
2272,521 - Metro Las Rosas,Calle Ginebra (esquina con Suecia),10,14,24,Poca disponibilidad,Disponible,-3.604818,40.423893
2273,508 - Metro Canillejas,Intercambiador de Canillejas,16,8,24,Poca disponibilidad,Disponible,-3.609553,40.449095
2274,80A - Estación de Atocha A,Avenida Ciudad de Barcelona (esquina con Plaza de Carlos V),5,18,23,Fuera de servicio,Disponible,-3.690538,40.407573
2275,80B - Estación de Atocha B,Avenida Ciudad de Barcelona (esquina con Plaza de Carlos V),20,7,27,Disponible,Disponible,-3.690475,40.407521
2276,447 - Adolfo Bioy Casares - Las Suertes,"Calle Adolfo Bioy Casares, 3",19,8,27,Disponible,Disponible,-3.598193,40.36685
2278,412 - Estación de tren de Puente de Alcocer,"Calle San Jenaro, 1",13,11,24,Poca disponibilidad,Disponible,-3.704308,40.350029
2279,415 - Diamante - Delmira Agustini,"Calle Diamante, 10",7,17,24,Fuera de servicio,Disponible,-3.687753,40.353261
2280,413 - Doctor Martín Arévalo,Calle Doctor Martín Arévalo enfrente del N°16,14,10,24,Poca disponibilidad,Disponible,-3.707413,40.345928
2281,"545 - Zapatoca, 8","Calle Zapatoca, 8",15,8,23,Poca disponibilidad,Disponible,-3.633358,40.472852
2282,567 - Plaza Mayor de Barajas,"Plaza Mayor de Barajas, 24",10,14,24,Poca disponibilidad,Disponible,-3.577654,40.473325
2283,563 - Soto Hidalgo,"Calle soto Hidalgo, 3",26,1,27,Disponible,Disponible,-3.582075,40.460647
2285,281 - Reina Cristina - Julián Gayarre,"Paseo de Reina Cristina, 6",17,6,23,Disponible,Disponible,-3.683186,40.406725
2286,609 - Metro Ronda de la Comunicación,Ronda de la Comunicación,7,16,23,Fuera de servicio,Disponible,-3.662689,40.51572
2287,408 - Metro San Cristóbal,"Calle de Moncada, 102",10,13,23,Poca disponibilidad,Disponible,-3.692444,40.341725
2288,"409 - Eduardo Barreiros, 114","Calle Eduardo Barreiros, 114",9,14,23,Poca disponibilidad,Disponible,-3.704644,40.35535
2289,606 - Fermín Caballero - Sangenjo,"Calle Fermín Caballero, 2",8,15,23,Poca disponibilidad,Disponible,-3.698485,40.487363
2290,349 - Huerta de Castañeda 26,"Calle Huerta de Catañeda, 26",8,16,24,Poca disponibilidad,Disponible,-3.742019,40.406221
2291,544 - Gregorio Sánchez Herráez 14,"calle Gregorio Sánchez Herráez, 14",7,16,23,Fuera de servicio,Disponible,-3.63657,40.477248
2292,551 - Oña,Calle Oña s/n,12,11,23,Poca disponibilidad,Disponible,-3.665856,40.489187
2293,552 - Ana de Austria - Ignacio Aldecoa,"Calle Ana de Austria, 52",5,22,27,Fuera de servicio,Disponible,-3.65315,40.499439
2294,542 - Estación de tren de Valdebebas,Avenida Fuerzas Armadas (Renfe Valdebebas),10,14,24,Poca disponibilidad,Disponible,-3.615718,40.481996
2297,320 - Metro Lago,"Paseo de la Puerta del Ángel, 10",8,11,19,Poca disponibilidad,Disponible,-3.734525,40.416779
2298,608 - Estella - Camino de Santiago,"Calle Estella, 21",19,4,23,Disponible,Disponible,-3.674357,40.49682
2299,278 - Paseo los Pontones - Ps. Melancólicos,"Paseo de los Pontones, 26",2,21,23,Fuera de servicio,Disponible,-3.7196,40.404043
2300,289 - Luis de Salazar - Padre Claret,"Calle luis de Salazar, 16",1,22,23,Fuera de servicio,Disponible,-3.664926,40.447417
2301,547 - Rafaela Aparicio - Maruja Mallo,"Calle Rafaela Aparicio, 1",12,15,27,Poca disponibilidad,Disponible,-3.631218,40.47924
2302,"402 - Berrocal, 9","Calle de Berrocal, 9",2,25,27,Fuera de servicio,Disponible,-3.67615,40.344115
2303,543 - Tomas Redondo,"Calle Tomás Redondo, 9",11,12,23,Poca disponibilidad,Disponible,-3.629138,40.471784
2304,277 - Virgen del Puerto,"Paseo Virgen del Puerto, 27",1,14,15,Fuera de servicio,Disponible,-3.721178,40.411622
2305,272 - Tejo - Parque La Ronda,"Calle del Tejo, 22",18,5,23,Disponible,Disponible,-3.679186,40.39663
2306,282 - Parque Retiro - Puerta Reina Mercedes,"Avenida Menéndez Pelayo enfrente del,33",17,6,23,Disponible,Disponible,-3.67878,40.418133
2307,1 - Metro Sol,"Calle Mayor , 6",16,7,23,Poca disponibilidad,Disponible,-3.70541,40.416465
2308,263 - Gran Vía de San Francisco,"Avenida Gran Vía de San Francisco, 6",8,15,23,Poca disponibilidad,Disponible,-3.712793,40.408339
2309,"559 - Calle Babilonia, 19","Calle Babilonia, 19",18,5,23,Disponible,Disponible,-3.588235,40.46753
2311,581 - Metro Peñagrande,"Camino de Ganapanes, 32-40",6,18,24,Fuera de servicio,Disponible,-3.716309,40.47648
2312,598 - Hospital Ramón y Cajal,"Calle San Modesto, 44",6,18,24,Fuera de servicio,Disponible,-3.69234,40.485801
2313,341 - Escalona - Seseña,"Calle Escalona, 2",0,27,27,Fuera de servicio,Disponible,-3.761823,40.398346
2314,346 - Metro Empalme,"Calle de Tembleque, 31",4,20,24,Fuera de servicio,Disponible,-3.766484,40.390744
2315,347 - Est. tren Mtra Justa Freire-Poli Aluche,"Avenida de las Aguilas, 27",16,8,24,Poca disponibilidad,Disponible,-3.768603,40.383554
2316,528 - Albelda - Torrelaguna,"Calle Albelda, 6",24,0,24,Disponible,Disponible,-3.657367,40.449422
2317,312 - Metro Batán,"Paseo de la Venta, 1",17,10,27,Poca disponibilidad,Disponible,-3.752856,40.40775
2318,321 - Metro Casa de Campo,Carretera del zoo s/n (metro Casa de Campo),13,14,27,Poca disponibilidad,Disponible,-3.761051,40.40316
2319,310 - Estación de tren de Aravaca,Calle Rosas de Aravaca,18,5,23,Disponible,Disponible,-3.784554,40.449051
2320,311 - C. Universitaria - F. Geografía e Histo,"Calle Profesor Aranguren, 1",25,2,27,Disponible,Disponible,-3.733574,40.448553
2321,283 - Museo Nacional del Prado,"Calle Felipe IV, 5",17,6,23,Disponible,Disponible,-3.691906,40.415208
2322,564 - IFEMA B,"Avenida Del Partenón, 18",7,16,23,Fuera de servicio,Disponible,-3.613867,40.463861
2323,468 - Caños de San Pedro - San Cipriano,"Calle Caños de San Pedro, 12",10,13,23,Poca disponibilidad,Disponible,-3.60192,40.402998
2324,465 - Cordel de Pavones - Bulevar José Prat,"Cordel de Pavones, 48",15,9,24,Poca disponibilidad,Disponible,-3.619645,40.397375
2325,414 - Metro Villaverde Bajo-Cruce,"Calle Santa Petronila, 7",4,20,24,Fuera de servicio,Disponible,-3.692163,40.350985
2326,380 - Oca,"Calle de la Oca, 22",14,10,24,Poca disponibilidad,Disponible,-3.733549,40.389433
2327,411 - Estación de tren de Villaverde Alto,"Calle Domingo Párraga, 38",11,12,23,Poca disponibilidad,Disponible,-3.711818,40.341753
2328,354 - Jacinto Verdaguer - Lola de Membrives,"Calle Jacinto Verdaguer, 12",5,19,24,Fuera de servicio,Disponible,-3.716053,40.395939
2329,318 - C. Deportivo Mpal. José María Cagigal,"Calle Santa Pola, 22",21,2,23,Disponible,Disponible,-3.737028,40.432051
2330,549 - Francisco Pi y Maragall,"Avenida Francisco Pi y Margall, 29",2,17,19,Fuera de servicio,Disponible,-3.650354,40.486635
2331,"279 - Paseo de los Melancólicos, 1","Paseo de los Melancólicos, 1",10,13,23,Poca disponibilidad,Disponible,-3.718482,40.410445
2332,"407 - Carmen de Burgos, 4","Calle Carmen de Burgos, 4",7,16,23,Fuera de servicio,Disponible,-3.684788,40.357546
2333,"276 - Paseo de las Yeserías, 15","Paseo de las Yeserías, 15",12,10,23,Poca disponibilidad,Disponible,-3.709917,40.399005
2334,340 - Illescas - Seseña,"Calle Illescas, 1",21,6,27,Disponible,Disponible,-3.765698,40.397098
2335,342 - Osa de la Vega - Rafael Finat,"Calle Osa de la Vega, 1",3,20,23,Fuera de servicio,Disponible,-3.773381,40.374979
2337,381 - Alfredo Aleix - Mercedes Rodríguez,"Calle Alfredo Aleix, 9",8,16,24,Poca disponibilidad,Disponible,-3.755392,40.368477
2339,"444 - Valderrebollo, 18","Calle Valderrebollo, 18",22,1,23,Disponible,Disponible,-3.627635,40.374348
2340,448 - Metro Las Suertes,"Avenida Del Ensanche de Vallecas, 80",14,13,27,Poca disponibilidad,Disponible,-3.599352,40.363376
2341,472 - Metro Valdebernardo,"Calle de los Pinillas, 19",4,23,27,Fuera de servicio,Disponible,-3.621148,40.398797
2342,473 - Villablanca - Parque Forestal Vicálvaro,"Calle Villa Blanca, 85",21,6,27,Disponible,Disponible,-3.59888,40.405
2343,474 - Estación de tren de Vicálvaro,"Calle San Cipriano, 71",10,17,27,Poca disponibilidad,Disponible,-3.596875,40.402255
2347,541 - Metro Pinar del Rey,"Avenida Gran Vía de Hortaleza, 68",8,15,23,Poca disponibilidad,Disponible,-3.646859,40.468271
2348,546 - Andorra - Canillas,"Calle Andorra, 2",5,18,23,Fuera de servicio,Disponible,-3.646752,40.462898
2349,"550 - Príncipe Carlos, 54","Calle del Príncipe Carlos, 54",2,21,23,Fuera de servicio,Disponible,-3.656674,40.494111
2350,553 - María Portugal - Niceto Alcalá Zamora,"Calle María de Portugal, 44",11,12,23,Poca disponibilidad,Disponible,-3.658921,40.499909
2351,601 - Estación de tren de Fuencarral,Calle Antonio de Cabezón (Estacion Cercanías Fuencarral),3,20,23,Fuera de servicio,Disponible,-3.682469,40.501559
2352,"603 - Castiello de Jaca, 14","Calle Castiello de Jaca, 14",0,23,23,Fuera de servicio,Disponible,-3.678203,40.509198
2359,607 - Metro Ligero - Palas de Rey,"Calle Valcarlos, 20 ,Comunidad de Madrid España",21,6,27,Disponible,Disponible,-3.664157,40.505192
2360,610 - Bardegueral,"Bardegueral,16,Comunidad de Madrid España",7,16,23,Fuera de servicio,Disponible,-3.77191,40.450172
2362,237 - Acueducto de Amaniel,"Calle Francisco Balseiro, 2 ,Comunidad de Madrid España",0,24,24,Fuera de servicio,Disponible,-3.710274,40.451682
2365,262 - María de las Mercedes de Borbón B,"Calle María de las Mercedes de Borbón, 214",9,14,23,Poca disponibilidad,Disponible,-3.620114,40.492868
2366,611 - María de las Mercedes de Borbón A,"Calle María de las Mercedes de Borbón, 98",2,21,23,Fuera de servicio,Disponible,-3.612107,40.490908
2368,176 - Plaza de la Beata María Ana de Jesús,"Calle Alicante, 3",0,0,0,Estado desconocido/mantenimiento,No disponible,-3.693941,40.394186
